[
{
  "model": "travels.airport",
  "pk": 1,
  "fields": {
    "name": "Goroka",
    "city": "Goroka",
    "country": "Papua New Guinea",
    "iata": "GKA",
    "icao": "AYGA",
    "lat": "-6.081689",
    "lon": "145.391881",
    "timezone": "10",
    "dst": "U",
    "alt": 5282
  }
},
{
  "model": "travels.airport",
  "pk": 2,
  "fields": {
    "name": "Madang",
    "city": "Madang",
    "country": "Papua New Guinea",
    "iata": "MAG",
    "icao": "AYMD",
    "lat": "-5.207083",
    "lon": "145.7887",
    "timezone": "10",
    "dst": "U",
    "alt": 20
  }
},
{
  "model": "travels.airport",
  "pk": 3,
  "fields": {
    "name": "Mount Hagen",
    "city": "Mount Hagen",
    "country": "Papua New Guinea",
    "iata": "HGU",
    "icao": "AYMH",
    "lat": "-5.826789",
    "lon": "144.295861",
    "timezone": "10",
    "dst": "U",
    "alt": 5388
  }
},
{
  "model": "travels.airport",
  "pk": 4,
  "fields": {
    "name": "Nadzab",
    "city": "Nadzab",
    "country": "Papua New Guinea",
    "iata": "LAE",
    "icao": "AYNZ",
    "lat": "-6.569828",
    "lon": "146.726242",
    "timezone": "10",
    "dst": "U",
    "alt": 239
  }
},
{
  "model": "travels.airport",
  "pk": 5,
  "fields": {
    "name": "Port Moresby Jacksons Intl",
    "city": "Port Moresby",
    "country": "Papua New Guinea",
    "iata": "POM",
    "icao": "AYPY",
    "lat": "-9.443383",
    "lon": "147.22005",
    "timezone": "10",
    "dst": "U",
    "alt": 146
  }
},
{
  "model": "travels.airport",
  "pk": 6,
  "fields": {
    "name": "Wewak Intl",
    "city": "Wewak",
    "country": "Papua New Guinea",
    "iata": "WWK",
    "icao": "AYWK",
    "lat": "-3.583828",
    "lon": "143.669186",
    "timezone": "10",
    "dst": "U",
    "alt": 19
  }
},
{
  "model": "travels.airport",
  "pk": 7,
  "fields": {
    "name": "Narsarsuaq",
    "city": "Narssarssuaq",
    "country": "Greenland",
    "iata": "UAK",
    "icao": "BGBW",
    "lat": "61.160517",
    "lon": "-45.425978",
    "timezone": "-3",
    "dst": "E",
    "alt": 112
  }
},
{
  "model": "travels.airport",
  "pk": 8,
  "fields": {
    "name": "Nuuk",
    "city": "Godthaab",
    "country": "Greenland",
    "iata": "GOH",
    "icao": "BGGH",
    "lat": "64.190922",
    "lon": "-51.678064",
    "timezone": "-3",
    "dst": "E",
    "alt": 283
  }
},
{
  "model": "travels.airport",
  "pk": 9,
  "fields": {
    "name": "Sondre Stromfjord",
    "city": "Sondrestrom",
    "country": "Greenland",
    "iata": "SFJ",
    "icao": "BGSF",
    "lat": "67.016969",
    "lon": "-50.689325",
    "timezone": "-3",
    "dst": "E",
    "alt": 165
  }
},
{
  "model": "travels.airport",
  "pk": 10,
  "fields": {
    "name": "Thule Air Base",
    "city": "Thule",
    "country": "Greenland",
    "iata": "THU",
    "icao": "BGTL",
    "lat": "76.531203",
    "lon": "-68.703161",
    "timezone": "-4",
    "dst": "E",
    "alt": 251
  }
},
{
  "model": "travels.airport",
  "pk": 11,
  "fields": {
    "name": "Akureyri",
    "city": "Akureyri",
    "country": "Iceland",
    "iata": "AEY",
    "icao": "BIAR",
    "lat": "65.659994",
    "lon": "-18.072703",
    "timezone": "0",
    "dst": "N",
    "alt": 6
  }
},
{
  "model": "travels.airport",
  "pk": 12,
  "fields": {
    "name": "Egilsstadir",
    "city": "Egilsstadir",
    "country": "Iceland",
    "iata": "EGS",
    "icao": "BIEG",
    "lat": "65.283333",
    "lon": "-14.401389",
    "timezone": "0",
    "dst": "N",
    "alt": 76
  }
},
{
  "model": "travels.airport",
  "pk": 13,
  "fields": {
    "name": "Hornafjordur",
    "city": "Hofn",
    "country": "Iceland",
    "iata": "HFN",
    "icao": "BIHN",
    "lat": "64.295556",
    "lon": "-15.227222",
    "timezone": "0",
    "dst": "N",
    "alt": 24
  }
},
{
  "model": "travels.airport",
  "pk": 14,
  "fields": {
    "name": "Husavik",
    "city": "Husavik",
    "country": "Iceland",
    "iata": "HZK",
    "icao": "BIHU",
    "lat": "65.952328",
    "lon": "-17.425978",
    "timezone": "0",
    "dst": "N",
    "alt": 48
  }
},
{
  "model": "travels.airport",
  "pk": 15,
  "fields": {
    "name": "Isafjordur",
    "city": "Isafjordur",
    "country": "Iceland",
    "iata": "IFJ",
    "icao": "BIIS",
    "lat": "66.058056",
    "lon": "-23.135278",
    "timezone": "0",
    "dst": "N",
    "alt": 8
  }
},
{
  "model": "travels.airport",
  "pk": 16,
  "fields": {
    "name": "Keflavik International Airport",
    "city": "Keflavik",
    "country": "Iceland",
    "iata": "KEF",
    "icao": "BIKF",
    "lat": "63.985",
    "lon": "-22.605556",
    "timezone": "0",
    "dst": "N",
    "alt": 171
  }
},
{
  "model": "travels.airport",
  "pk": 17,
  "fields": {
    "name": "Patreksfjordur",
    "city": "Patreksfjordur",
    "country": "Iceland",
    "iata": "PFJ",
    "icao": "BIPA",
    "lat": "65.555833",
    "lon": "-23.965",
    "timezone": "0",
    "dst": "N",
    "alt": 11
  }
},
{
  "model": "travels.airport",
  "pk": 18,
  "fields": {
    "name": "Reykjavik",
    "city": "Reykjavik",
    "country": "Iceland",
    "iata": "RKV",
    "icao": "BIRK",
    "lat": "64.13",
    "lon": "-21.940556",
    "timezone": "0",
    "dst": "N",
    "alt": 48
  }
},
{
  "model": "travels.airport",
  "pk": 19,
  "fields": {
    "name": "Siglufjordur",
    "city": "Siglufjordur",
    "country": "Iceland",
    "iata": "SIJ",
    "icao": "BISI",
    "lat": "66.133333",
    "lon": "-18.916667",
    "timezone": "0",
    "dst": "N",
    "alt": 10
  }
},
{
  "model": "travels.airport",
  "pk": 20,
  "fields": {
    "name": "Vestmannaeyjar",
    "city": "Vestmannaeyjar",
    "country": "Iceland",
    "iata": "VEY",
    "icao": "BIVM",
    "lat": "63.424303",
    "lon": "-20.278875",
    "timezone": "0",
    "dst": "N",
    "alt": 326
  }
},
{
  "model": "travels.airport",
  "pk": 21,
  "fields": {
    "name": "Sault Ste Marie",
    "city": "Sault Sainte Marie",
    "country": "Canada",
    "iata": "YAM",
    "icao": "CYAM",
    "lat": "46.485001",
    "lon": "-84.509445",
    "timezone": "-5",
    "dst": "A",
    "alt": 630
  }
},
{
  "model": "travels.airport",
  "pk": 22,
  "fields": {
    "name": "Winnipeg St Andrews",
    "city": "Winnipeg",
    "country": "Canada",
    "iata": "YAV",
    "icao": "CYAV",
    "lat": "50.056389",
    "lon": "-97.0325",
    "timezone": "-6",
    "dst": "A",
    "alt": 760
  }
},
{
  "model": "travels.airport",
  "pk": 23,
  "fields": {
    "name": "Shearwater",
    "city": "Halifax",
    "country": "Canada",
    "iata": "YAW",
    "icao": "CYAW",
    "lat": "44.639721",
    "lon": "-63.499444",
    "timezone": "-4",
    "dst": "A",
    "alt": 167
  }
},
{
  "model": "travels.airport",
  "pk": 24,
  "fields": {
    "name": "St Anthony",
    "city": "St. Anthony",
    "country": "Canada",
    "iata": "YAY",
    "icao": "CYAY",
    "lat": "51.391944",
    "lon": "-56.083056",
    "timezone": "-4",
    "dst": "A",
    "alt": 108
  }
},
{
  "model": "travels.airport",
  "pk": 25,
  "fields": {
    "name": "Tofino",
    "city": "Tofino",
    "country": "Canada",
    "iata": "YAZ",
    "icao": "CYAZ",
    "lat": "49.082222",
    "lon": "-125.7725",
    "timezone": "-8",
    "dst": "A",
    "alt": 80
  }
},
{
  "model": "travels.airport",
  "pk": 26,
  "fields": {
    "name": "Kugaaruk",
    "city": "Pelly Bay",
    "country": "Canada",
    "iata": "YBB",
    "icao": "CYBB",
    "lat": "68.534444",
    "lon": "-89.808056",
    "timezone": "-6",
    "dst": "A",
    "alt": 56
  }
},
{
  "model": "travels.airport",
  "pk": 27,
  "fields": {
    "name": "Baie Comeau",
    "city": "Baie Comeau",
    "country": "Canada",
    "iata": "YBC",
    "icao": "CYBC",
    "lat": "49.1325",
    "lon": "-68.204444",
    "timezone": "-5",
    "dst": "A",
    "alt": 71
  }
},
{
  "model": "travels.airport",
  "pk": 28,
  "fields": {
    "name": "Bagotville",
    "city": "Bagotville",
    "country": "Canada",
    "iata": "YBG",
    "icao": "CYBG",
    "lat": "48.330555",
    "lon": "-70.996391",
    "timezone": "-5",
    "dst": "A",
    "alt": 522
  }
},
{
  "model": "travels.airport",
  "pk": 29,
  "fields": {
    "name": "Baker Lake",
    "city": "Baker Lake",
    "country": "Canada",
    "iata": "YBK",
    "icao": "CYBK",
    "lat": "64.298889",
    "lon": "-96.077778",
    "timezone": "-6",
    "dst": "A",
    "alt": 59
  }
},
{
  "model": "travels.airport",
  "pk": 30,
  "fields": {
    "name": "Campbell River",
    "city": "Campbell River",
    "country": "Canada",
    "iata": "YBL",
    "icao": "CYBL",
    "lat": "49.950832",
    "lon": "-125.270833",
    "timezone": "-8",
    "dst": "A",
    "alt": 346
  }
},
{
  "model": "travels.airport",
  "pk": 31,
  "fields": {
    "name": "Brandon Muni",
    "city": "Brandon",
    "country": "Canada",
    "iata": "YBR",
    "icao": "CYBR",
    "lat": "49.91",
    "lon": "-99.951944",
    "timezone": "-6",
    "dst": "A",
    "alt": 1343
  }
},
{
  "model": "travels.airport",
  "pk": 32,
  "fields": {
    "name": "Cambridge Bay",
    "city": "Cambridge Bay",
    "country": "Canada",
    "iata": "YCB",
    "icao": "CYCB",
    "lat": "69.108055",
    "lon": "-105.138333",
    "timezone": "-7",
    "dst": "A",
    "alt": 90
  }
},
{
  "model": "travels.airport",
  "pk": 33,
  "fields": {
    "name": "Nanaimo",
    "city": "Nanaimo",
    "country": "Canada",
    "iata": "YCD",
    "icao": "CYCD",
    "lat": "49.052333",
    "lon": "-123.870167",
    "timezone": "-8",
    "dst": "A",
    "alt": 93
  }
},
{
  "model": "travels.airport",
  "pk": 34,
  "fields": {
    "name": "Castlegar",
    "city": "Castlegar",
    "country": "Canada",
    "iata": "YCG",
    "icao": "CYCG",
    "lat": "49.296389",
    "lon": "-117.6325",
    "timezone": "-8",
    "dst": "A",
    "alt": 1624
  }
},
{
  "model": "travels.airport",
  "pk": 35,
  "fields": {
    "name": "Miramichi",
    "city": "Chatham",
    "country": "Canada",
    "iata": "YCH",
    "icao": "CYCH",
    "lat": "47.007778",
    "lon": "-65.449167",
    "timezone": "-4",
    "dst": "A",
    "alt": 108
  }
},
{
  "model": "travels.airport",
  "pk": 36,
  "fields": {
    "name": "Charlo",
    "city": "Charlo",
    "country": "Canada",
    "iata": "YCL",
    "icao": "CYCL",
    "lat": "47.990833",
    "lon": "-66.330278",
    "timezone": "-4",
    "dst": "A",
    "alt": 132
  }
},
{
  "model": "travels.airport",
  "pk": 37,
  "fields": {
    "name": "Kugluktuk",
    "city": "Coppermine",
    "country": "Canada",
    "iata": "YCO",
    "icao": "CYCO",
    "lat": "67.816667",
    "lon": "-115.143889",
    "timezone": "-7",
    "dst": "A",
    "alt": 74
  }
},
{
  "model": "travels.airport",
  "pk": 38,
  "fields": {
    "name": "Coronation",
    "city": "Coronation",
    "country": "Canada",
    "iata": "YCT",
    "icao": "CYCT",
    "lat": "52.075001",
    "lon": "-111.445278",
    "timezone": "-7",
    "dst": "A",
    "alt": 2595
  }
},
{
  "model": "travels.airport",
  "pk": 39,
  "fields": {
    "name": "Chilliwack",
    "city": "Chilliwack",
    "country": "Canada",
    "iata": "YCW",
    "icao": "CYCW",
    "lat": "49.152779",
    "lon": "-121.93889",
    "timezone": "-8",
    "dst": "A",
    "alt": 32
  }
},
{
  "model": "travels.airport",
  "pk": 40,
  "fields": {
    "name": "Clyde River",
    "city": "Clyde River",
    "country": "Canada",
    "iata": "YCY",
    "icao": "CYCY",
    "lat": "70.486111",
    "lon": "-68.516667",
    "timezone": "-5",
    "dst": "A",
    "alt": 87
  }
},
{
  "model": "travels.airport",
  "pk": 41,
  "fields": {
    "name": "Fairmont Hot Springs",
    "city": "Coral Harbour",
    "country": "Canada",
    "iata": "YZS",
    "icao": "CYCZ",
    "lat": "64.193333",
    "lon": "-83.359444",
    "timezone": "-7",
    "dst": "A",
    "alt": 2661
  }
},
{
  "model": "travels.airport",
  "pk": 42,
  "fields": {
    "name": "Dawson City",
    "city": "Dawson",
    "country": "Canada",
    "iata": "YDA",
    "icao": "CYDA",
    "lat": "64.043056",
    "lon": "-139.127778",
    "timezone": "-8",
    "dst": "A",
    "alt": 1215
  }
},
{
  "model": "travels.airport",
  "pk": 43,
  "fields": {
    "name": "Burwash",
    "city": "Burwash",
    "country": "Canada",
    "iata": "YDB",
    "icao": "CYDB",
    "lat": "61.371111",
    "lon": "-139.040556",
    "timezone": "-8",
    "dst": "A",
    "alt": 2647
  }
},
{
  "model": "travels.airport",
  "pk": 44,
  "fields": {
    "name": "Princeton",
    "city": "Princeton",
    "country": "Canada",
    "iata": "YDC",
    "icao": "CYDC",
    "lat": "49.468056",
    "lon": "-120.511389",
    "timezone": "-8",
    "dst": "A",
    "alt": 2298
  }
},
{
  "model": "travels.airport",
  "pk": 45,
  "fields": {
    "name": "Deer Lake",
    "city": "Deer Lake",
    "country": "Canada",
    "iata": "YDF",
    "icao": "CYDF",
    "lat": "49.210833",
    "lon": "-57.391388",
    "timezone": "-4",
    "dst": "A",
    "alt": 72
  }
},
{
  "model": "travels.airport",
  "pk": 46,
  "fields": {
    "name": "Dease Lake",
    "city": "Dease Lake",
    "country": "Canada",
    "iata": "YDL",
    "icao": "CYDL",
    "lat": "58.422222",
    "lon": "-130.032222",
    "timezone": "-8",
    "dst": "A",
    "alt": 2600
  }
},
{
  "model": "travels.airport",
  "pk": 47,
  "fields": {
    "name": "Dauphin Barker",
    "city": "Dauphin",
    "country": "Canada",
    "iata": "YDN",
    "icao": "CYDN",
    "lat": "51.100834",
    "lon": "-100.0525",
    "timezone": "-6",
    "dst": "A",
    "alt": 999
  }
},
{
  "model": "travels.airport",
  "pk": 48,
  "fields": {
    "name": "Dawson Creek",
    "city": "Dawson Creek",
    "country": "Canada",
    "iata": "YDQ",
    "icao": "CYDQ",
    "lat": "55.742333",
    "lon": "-120.183",
    "timezone": "-7",
    "dst": "A",
    "alt": 2148
  }
},
{
  "model": "travels.airport",
  "pk": 49,
  "fields": {
    "name": "Edmonton Intl",
    "city": "Edmonton",
    "country": "Canada",
    "iata": "YEG",
    "icao": "CYEG",
    "lat": "53.309723",
    "lon": "-113.579722",
    "timezone": "-7",
    "dst": "A",
    "alt": 2373
  }
},
{
  "model": "travels.airport",
  "pk": 50,
  "fields": {
    "name": "Arviat",
    "city": "Eskimo Point",
    "country": "Canada",
    "iata": "YEK",
    "icao": "CYEK",
    "lat": "61.094166",
    "lon": "-94.070833",
    "timezone": "-6",
    "dst": "A",
    "alt": 32
  }
},
{
  "model": "travels.airport",
  "pk": 51,
  "fields": {
    "name": "Estevan",
    "city": "Estevan",
    "country": "Canada",
    "iata": "YEN",
    "icao": "CYEN",
    "lat": "49.210278",
    "lon": "-102.965833",
    "timezone": "-6",
    "dst": "N",
    "alt": 1905
  }
},
{
  "model": "travels.airport",
  "pk": 52,
  "fields": {
    "name": "Edson",
    "city": "Edson",
    "country": "Canada",
    "iata": "YET",
    "icao": "CYET",
    "lat": "53.578888",
    "lon": "-116.465",
    "timezone": "-7",
    "dst": "A",
    "alt": 3041
  }
},
{
  "model": "travels.airport",
  "pk": 53,
  "fields": {
    "name": "Eureka",
    "city": "Eureka",
    "country": "Canada",
    "iata": "YEU",
    "icao": "CYEU",
    "lat": "79.994722",
    "lon": "-85.814167",
    "timezone": "-6",
    "dst": "A",
    "alt": 256
  }
},
{
  "model": "travels.airport",
  "pk": 54,
  "fields": {
    "name": "Inuvik Mike Zubko",
    "city": "Inuvik",
    "country": "Canada",
    "iata": "YEV",
    "icao": "CYEV",
    "lat": "68.304167",
    "lon": "-133.482778",
    "timezone": "-7",
    "dst": "A",
    "alt": 224
  }
},
{
  "model": "travels.airport",
  "pk": 55,
  "fields": {
    "name": "Iqaluit",
    "city": "Iqaluit",
    "country": "Canada",
    "iata": "YFB",
    "icao": "CYFB",
    "lat": "63.75639",
    "lon": "-68.555832",
    "timezone": "-5",
    "dst": "A",
    "alt": 110
  }
},
{
  "model": "travels.airport",
  "pk": 56,
  "fields": {
    "name": "Fredericton",
    "city": "Fredericton",
    "country": "Canada",
    "iata": "YFC",
    "icao": "CYFC",
    "lat": "45.868889",
    "lon": "-66.537222",
    "timezone": "-4",
    "dst": "A",
    "alt": 68
  }
},
{
  "model": "travels.airport",
  "pk": 57,
  "fields": {
    "name": "Forestville",
    "city": "Forestville",
    "country": "Canada",
    "iata": "",
    "icao": "CYFE",
    "lat": "48.746111",
    "lon": "-69.097222",
    "timezone": "-5",
    "dst": "A",
    "alt": 293
  }
},
{
  "model": "travels.airport",
  "pk": 58,
  "fields": {
    "name": "Flin Flon",
    "city": "Flin Flon",
    "country": "Canada",
    "iata": "YFO",
    "icao": "CYFO",
    "lat": "54.678055",
    "lon": "-101.681667",
    "timezone": "-6",
    "dst": "A",
    "alt": 997
  }
},
{
  "model": "travels.airport",
  "pk": 59,
  "fields": {
    "name": "Fort Resolution",
    "city": "Fort Resolution",
    "country": "Canada",
    "iata": "YFR",
    "icao": "CYFR",
    "lat": "61.180832",
    "lon": "-113.689722",
    "timezone": "-7",
    "dst": "A",
    "alt": 526
  }
},
{
  "model": "travels.airport",
  "pk": 60,
  "fields": {
    "name": "Fort Simpson",
    "city": "Fort Simpson",
    "country": "Canada",
    "iata": "YFS",
    "icao": "CYFS",
    "lat": "61.760153",
    "lon": "-121.236525",
    "timezone": "-7",
    "dst": "A",
    "alt": 555
  }
},
{
  "model": "travels.airport",
  "pk": 61,
  "fields": {
    "name": "Kingston",
    "city": "Kingston",
    "country": "Canada",
    "iata": "YGK",
    "icao": "CYGK",
    "lat": "44.225277",
    "lon": "-76.596944",
    "timezone": "-5",
    "dst": "A",
    "alt": 305
  }
},
{
  "model": "travels.airport",
  "pk": 62,
  "fields": {
    "name": "La Grande Riviere",
    "city": "La Grande Riviere",
    "country": "Canada",
    "iata": "YGL",
    "icao": "CYGL",
    "lat": "53.625278",
    "lon": "-77.704167",
    "timezone": "-5",
    "dst": "A",
    "alt": 639
  }
},
{
  "model": "travels.airport",
  "pk": 63,
  "fields": {
    "name": "Gaspe",
    "city": "Gaspe",
    "country": "Canada",
    "iata": "YGP",
    "icao": "CYGP",
    "lat": "48.775278",
    "lon": "-64.478611",
    "timezone": "-5",
    "dst": "A",
    "alt": 108
  }
},
{
  "model": "travels.airport",
  "pk": 64,
  "fields": {
    "name": "Geraldton Greenstone Regional",
    "city": "Geraldton",
    "country": "Canada",
    "iata": "YGQ",
    "icao": "CYGQ",
    "lat": "49.778332",
    "lon": "-86.939445",
    "timezone": "-5",
    "dst": "A",
    "alt": 1144
  }
},
{
  "model": "travels.airport",
  "pk": 65,
  "fields": {
    "name": "Iles De La Madeleine",
    "city": "Iles De La Madeleine",
    "country": "Canada",
    "iata": "YGR",
    "icao": "CYGR",
    "lat": "47.424721",
    "lon": "-61.778056",
    "timezone": "-4",
    "dst": "A",
    "alt": 35
  }
},
{
  "model": "travels.airport",
  "pk": 66,
  "fields": {
    "name": "Hudson Bay",
    "city": "Hudson Bay",
    "country": "Canada",
    "iata": "YHB",
    "icao": "CYHB",
    "lat": "52.816666",
    "lon": "-102.31139",
    "timezone": "-6",
    "dst": "N",
    "alt": 1175
  }
},
{
  "model": "travels.airport",
  "pk": 67,
  "fields": {
    "name": "Dryden Rgnl",
    "city": "Dryden",
    "country": "Canada",
    "iata": "YHD",
    "icao": "CYHD",
    "lat": "49.831667",
    "lon": "-92.744167",
    "timezone": "-6",
    "dst": "A",
    "alt": 1354
  }
},
{
  "model": "travels.airport",
  "pk": 68,
  "fields": {
    "name": "Ulukhaktok Holman",
    "city": "Holman Island",
    "country": "Canada",
    "iata": "YHI",
    "icao": "CYHI",
    "lat": "70.762778",
    "lon": "-117.806111",
    "timezone": "-7",
    "dst": "A",
    "alt": 117
  }
},
{
  "model": "travels.airport",
  "pk": 69,
  "fields": {
    "name": "Gjoa Haven",
    "city": "Gjoa Haven",
    "country": "Canada",
    "iata": "YHK",
    "icao": "CYHK",
    "lat": "68.635556",
    "lon": "-95.849722",
    "timezone": "-6",
    "dst": "A",
    "alt": 152
  }
},
{
  "model": "travels.airport",
  "pk": 70,
  "fields": {
    "name": "Hamilton",
    "city": "Hamilton",
    "country": "Canada",
    "iata": "YHM",
    "icao": "CYHM",
    "lat": "43.173611",
    "lon": "-79.935",
    "timezone": "-5",
    "dst": "A",
    "alt": 780
  }
},
{
  "model": "travels.airport",
  "pk": 71,
  "fields": {
    "name": "St Hubert",
    "city": "Montreal",
    "country": "Canada",
    "iata": "YHU",
    "icao": "CYHU",
    "lat": "45.5175",
    "lon": "-73.416944",
    "timezone": "-5",
    "dst": "A",
    "alt": 90
  }
},
{
  "model": "travels.airport",
  "pk": 72,
  "fields": {
    "name": "Hay River",
    "city": "Hay River",
    "country": "Canada",
    "iata": "YHY",
    "icao": "CYHY",
    "lat": "60.839722",
    "lon": "-115.782778",
    "timezone": "-7",
    "dst": "A",
    "alt": 543
  }
},
{
  "model": "travels.airport",
  "pk": 73,
  "fields": {
    "name": "Halifax Intl",
    "city": "Halifax",
    "country": "Canada",
    "iata": "YHZ",
    "icao": "CYHZ",
    "lat": "44.880833",
    "lon": "-63.50861",
    "timezone": "-4",
    "dst": "A",
    "alt": 477
  }
},
{
  "model": "travels.airport",
  "pk": 74,
  "fields": {
    "name": "Atikokan Muni",
    "city": "Atikokan",
    "country": "Canada",
    "iata": "YIB",
    "icao": "CYIB",
    "lat": "48.773888",
    "lon": "-91.638611",
    "timezone": "-6",
    "dst": "A",
    "alt": 1408
  }
},
{
  "model": "travels.airport",
  "pk": 75,
  "fields": {
    "name": "Pond Inlet",
    "city": "Pond Inlet",
    "country": "Canada",
    "iata": "YIO",
    "icao": "CYIO",
    "lat": "72.683334",
    "lon": "-77.966667",
    "timezone": "-5",
    "dst": "A",
    "alt": 181
  }
},
{
  "model": "travels.airport",
  "pk": 76,
  "fields": {
    "name": "St Jean",
    "city": "St. Jean",
    "country": "Canada",
    "iata": "YJN",
    "icao": "CYJN",
    "lat": "45.294445",
    "lon": "-73.281111",
    "timezone": "-5",
    "dst": "A",
    "alt": 136
  }
},
{
  "model": "travels.airport",
  "pk": 77,
  "fields": {
    "name": "Stephenville",
    "city": "Stephenville",
    "country": "Canada",
    "iata": "YJT",
    "icao": "CYJT",
    "lat": "48.544167",
    "lon": "-58.549999",
    "timezone": "-4",
    "dst": "A",
    "alt": 80
  }
},
{
  "model": "travels.airport",
  "pk": 78,
  "fields": {
    "name": "Kamloops",
    "city": "Kamloops",
    "country": "Canada",
    "iata": "YKA",
    "icao": "CYKA",
    "lat": "50.702222",
    "lon": "-120.444444",
    "timezone": "-8",
    "dst": "A",
    "alt": 1133
  }
},
{
  "model": "travels.airport",
  "pk": 79,
  "fields": {
    "name": "Waterloo",
    "city": "Waterloo",
    "country": "Canada",
    "iata": "YKF",
    "icao": "CYKF",
    "lat": "43.460833",
    "lon": "-80.378611",
    "timezone": "-5",
    "dst": "A",
    "alt": 1054
  }
},
{
  "model": "travels.airport",
  "pk": 80,
  "fields": {
    "name": "Schefferville",
    "city": "Schefferville",
    "country": "Canada",
    "iata": "YKL",
    "icao": "CYKL",
    "lat": "54.805278",
    "lon": "-66.805278",
    "timezone": "-4",
    "dst": "A",
    "alt": 1709
  }
},
{
  "model": "travels.airport",
  "pk": 81,
  "fields": {
    "name": "Kindersley",
    "city": "Kindersley",
    "country": "Canada",
    "iata": "YKY",
    "icao": "CYKY",
    "lat": "51.5175",
    "lon": "-109.180833",
    "timezone": "-6",
    "dst": "N",
    "alt": 2277
  }
},
{
  "model": "travels.airport",
  "pk": 82,
  "fields": {
    "name": "Buttonville Muni",
    "city": "Toronto",
    "country": "Canada",
    "iata": "YKZ",
    "icao": "CYKZ",
    "lat": "43.862221",
    "lon": "-79.37",
    "timezone": "-5",
    "dst": "A",
    "alt": 650
  }
},
{
  "model": "travels.airport",
  "pk": 83,
  "fields": {
    "name": "Chapleau",
    "city": "Chapleau",
    "country": "Canada",
    "iata": "YLD",
    "icao": "CYLD",
    "lat": "47.82",
    "lon": "-83.346667",
    "timezone": "-5",
    "dst": "A",
    "alt": 1470
  }
},
{
  "model": "travels.airport",
  "pk": 84,
  "fields": {
    "name": "Meadow Lake",
    "city": "Meadow Lake",
    "country": "Canada",
    "iata": "YLJ",
    "icao": "CYLJ",
    "lat": "54.125278",
    "lon": "-108.522778",
    "timezone": "-6",
    "dst": "N",
    "alt": 1576
  }
},
{
  "model": "travels.airport",
  "pk": 85,
  "fields": {
    "name": "Lloydminster",
    "city": "Lloydminster",
    "country": "Canada",
    "iata": "YLL",
    "icao": "CYLL",
    "lat": "53.309166",
    "lon": "-110.0725",
    "timezone": "-6",
    "dst": "A",
    "alt": 2193
  }
},
{
  "model": "travels.airport",
  "pk": 86,
  "fields": {
    "name": "Alert",
    "city": "Alert",
    "country": "Canada",
    "iata": "YLT",
    "icao": "CYLT",
    "lat": "82.517778",
    "lon": "-62.280556",
    "timezone": "-5",
    "dst": "A",
    "alt": 100
  }
},
{
  "model": "travels.airport",
  "pk": 87,
  "fields": {
    "name": "Kelowna",
    "city": "Kelowna",
    "country": "Canada",
    "iata": "YLW",
    "icao": "CYLW",
    "lat": "49.956112",
    "lon": "-119.377778",
    "timezone": "-8",
    "dst": "A",
    "alt": 1409
  }
},
{
  "model": "travels.airport",
  "pk": 88,
  "fields": {
    "name": "Mayo",
    "city": "Mayo",
    "country": "Canada",
    "iata": "YMA",
    "icao": "CYMA",
    "lat": "63.616389",
    "lon": "-135.868333",
    "timezone": "-8",
    "dst": "A",
    "alt": 1653
  }
},
{
  "model": "travels.airport",
  "pk": 89,
  "fields": {
    "name": "Moose Jaw Air Vice Marshal C M Mcewen",
    "city": "Moose Jaw",
    "country": "Canada",
    "iata": "YMJ",
    "icao": "CYMJ",
    "lat": "50.330278",
    "lon": "-105.559167",
    "timezone": "-6",
    "dst": "N",
    "alt": 1892
  }
},
{
  "model": "travels.airport",
  "pk": 90,
  "fields": {
    "name": "Fort Mcmurray",
    "city": "Fort Mcmurray",
    "country": "Canada",
    "iata": "YMM",
    "icao": "CYMM",
    "lat": "56.653333",
    "lon": "-111.221944",
    "timezone": "-7",
    "dst": "A",
    "alt": 1211
  }
},
{
  "model": "travels.airport",
  "pk": 91,
  "fields": {
    "name": "Moosonee",
    "city": "Moosonee",
    "country": "Canada",
    "iata": "YMO",
    "icao": "CYMO",
    "lat": "51.291111",
    "lon": "-80.607778",
    "timezone": "-5",
    "dst": "A",
    "alt": 30
  }
},
{
  "model": "travels.airport",
  "pk": 92,
  "fields": {
    "name": "Maniwaki",
    "city": "Maniwaki",
    "country": "Canada",
    "iata": "YMW",
    "icao": "CYMW",
    "lat": "46.272778",
    "lon": "-75.990556",
    "timezone": "-5",
    "dst": "A",
    "alt": 656
  }
},
{
  "model": "travels.airport",
  "pk": 93,
  "fields": {
    "name": "Montreal Intl Mirabel",
    "city": "Montreal",
    "country": "Canada",
    "iata": "YMX",
    "icao": "CYMX",
    "lat": "45.681944",
    "lon": "-74.005278",
    "timezone": "-5",
    "dst": "A",
    "alt": 270
  }
},
{
  "model": "travels.airport",
  "pk": 94,
  "fields": {
    "name": "Natashquan",
    "city": "Natashquan",
    "country": "Canada",
    "iata": "YNA",
    "icao": "CYNA",
    "lat": "50.19",
    "lon": "-61.789167",
    "timezone": "-4",
    "dst": "A",
    "alt": 39
  }
},
{
  "model": "travels.airport",
  "pk": 95,
  "fields": {
    "name": "Gatineau",
    "city": "Gatineau",
    "country": "Canada",
    "iata": "YND",
    "icao": "CYND",
    "lat": "45.521694",
    "lon": "-75.563589",
    "timezone": "-5",
    "dst": "A",
    "alt": 211
  }
},
{
  "model": "travels.airport",
  "pk": 96,
  "fields": {
    "name": "Matagami",
    "city": "Matagami",
    "country": "Canada",
    "iata": "YNM",
    "icao": "CYNM",
    "lat": "49.761667",
    "lon": "-77.802778",
    "timezone": "-5",
    "dst": "A",
    "alt": 918
  }
},
{
  "model": "travels.airport",
  "pk": 97,
  "fields": {
    "name": "Old Crow",
    "city": "Old Crow",
    "country": "Canada",
    "iata": "YOC",
    "icao": "CYOC",
    "lat": "67.570556",
    "lon": "-139.839167",
    "timezone": "-8",
    "dst": "A",
    "alt": 824
  }
},
{
  "model": "travels.airport",
  "pk": 98,
  "fields": {
    "name": "Cold Lake",
    "city": "Cold Lake",
    "country": "Canada",
    "iata": "YOD",
    "icao": "CYOD",
    "lat": "54.404999",
    "lon": "-110.279444",
    "timezone": "-7",
    "dst": "A",
    "alt": 1775
  }
},
{
  "model": "travels.airport",
  "pk": 99,
  "fields": {
    "name": "High Level",
    "city": "High Level",
    "country": "Canada",
    "iata": "YOJ",
    "icao": "CYOJ",
    "lat": "58.621389",
    "lon": "-117.164722",
    "timezone": "-7",
    "dst": "A",
    "alt": 1110
  }
},
{
  "model": "travels.airport",
  "pk": 100,
  "fields": {
    "name": "Ottawa Macdonald Cartier Intl",
    "city": "Ottawa",
    "country": "Canada",
    "iata": "YOW",
    "icao": "CYOW",
    "lat": "45.3225",
    "lon": "-75.669167",
    "timezone": "-5",
    "dst": "A",
    "alt": 374
  }
},
{
  "model": "travels.airport",
  "pk": 101,
  "fields": {
    "name": "Prince Albert Glass Field",
    "city": "Prince Albert",
    "country": "Canada",
    "iata": "YPA",
    "icao": "CYPA",
    "lat": "53.214167",
    "lon": "-105.672778",
    "timezone": "-6",
    "dst": "N",
    "alt": 1405
  }
},
{
  "model": "travels.airport",
  "pk": 102,
  "fields": {
    "name": "Peace River",
    "city": "Peace River",
    "country": "Canada",
    "iata": "YPE",
    "icao": "CYPE",
    "lat": "56.226944",
    "lon": "-117.447222",
    "timezone": "-7",
    "dst": "A",
    "alt": 1873
  }
},
{
  "model": "travels.airport",
  "pk": 103,
  "fields": {
    "name": "Southport",
    "city": "Portage-la-prairie",
    "country": "Canada",
    "iata": "YPG",
    "icao": "CYPG",
    "lat": "49.903056",
    "lon": "-98.273889",
    "timezone": "-6",
    "dst": "A",
    "alt": 885
  }
},
{
  "model": "travels.airport",
  "pk": 104,
  "fields": {
    "name": "Pitt Meadows",
    "city": "Pitt Meadows",
    "country": "Canada",
    "iata": "",
    "icao": "CYPK",
    "lat": "49.21611",
    "lon": "-122.71",
    "timezone": "-8",
    "dst": "A",
    "alt": 11
  }
},
{
  "model": "travels.airport",
  "pk": 105,
  "fields": {
    "name": "Pickle Lake",
    "city": "Pickle Lake",
    "country": "Canada",
    "iata": "YPL",
    "icao": "CYPL",
    "lat": "51.446388",
    "lon": "-90.214167",
    "timezone": "-6",
    "dst": "A",
    "alt": 1267
  }
},
{
  "model": "travels.airport",
  "pk": 106,
  "fields": {
    "name": "Port Menier",
    "city": "Port Menier",
    "country": "Canada",
    "iata": "YPN",
    "icao": "CYPN",
    "lat": "49.836389",
    "lon": "-64.288611",
    "timezone": "-5",
    "dst": "A",
    "alt": 167
  }
},
{
  "model": "travels.airport",
  "pk": 107,
  "fields": {
    "name": "Peterborough",
    "city": "Peterborough",
    "country": "Canada",
    "iata": "YPQ",
    "icao": "CYPQ",
    "lat": "44.23",
    "lon": "-78.363333",
    "timezone": "-5",
    "dst": "A",
    "alt": 628
  }
},
{
  "model": "travels.airport",
  "pk": 108,
  "fields": {
    "name": "Prince Rupert",
    "city": "Prince Pupert",
    "country": "Canada",
    "iata": "YPR",
    "icao": "CYPR",
    "lat": "54.28611",
    "lon": "-130.444722",
    "timezone": "-8",
    "dst": "A",
    "alt": 116
  }
},
{
  "model": "travels.airport",
  "pk": 109,
  "fields": {
    "name": "Fort Chipewyan",
    "city": "Fort Chipewyan",
    "country": "Canada",
    "iata": "YPY",
    "icao": "CYPY",
    "lat": "58.767223",
    "lon": "-111.117222",
    "timezone": "-7",
    "dst": "A",
    "alt": 761
  }
},
{
  "model": "travels.airport",
  "pk": 110,
  "fields": {
    "name": "Muskoka",
    "city": "Muskoka",
    "country": "Canada",
    "iata": "YQA",
    "icao": "CYQA",
    "lat": "44.974722",
    "lon": "-79.303333",
    "timezone": "-5",
    "dst": "A",
    "alt": 925
  }
},
{
  "model": "travels.airport",
  "pk": 111,
  "fields": {
    "name": "Quebec Jean Lesage Intl",
    "city": "Quebec",
    "country": "Canada",
    "iata": "YQB",
    "icao": "CYQB",
    "lat": "46.791111",
    "lon": "-71.393333",
    "timezone": "-5",
    "dst": "A",
    "alt": 244
  }
},
{
  "model": "travels.airport",
  "pk": 112,
  "fields": {
    "name": "Red Deer Regional",
    "city": "Red Deer Industrial",
    "country": "Canada",
    "iata": "YQF",
    "icao": "CYQF",
    "lat": "52.182222",
    "lon": "-113.894444",
    "timezone": "-7",
    "dst": "A",
    "alt": 2968
  }
},
{
  "model": "travels.airport",
  "pk": 113,
  "fields": {
    "name": "Windsor",
    "city": "Windsor",
    "country": "Canada",
    "iata": "YQG",
    "icao": "CYQG",
    "lat": "42.275556",
    "lon": "-82.955556",
    "timezone": "-5",
    "dst": "A",
    "alt": 622
  }
},
{
  "model": "travels.airport",
  "pk": 114,
  "fields": {
    "name": "Watson Lake",
    "city": "Watson Lake",
    "country": "Canada",
    "iata": "YQH",
    "icao": "CYQH",
    "lat": "60.116389",
    "lon": "-128.8225",
    "timezone": "-8",
    "dst": "A",
    "alt": 2255
  }
},
{
  "model": "travels.airport",
  "pk": 115,
  "fields": {
    "name": "Kenora",
    "city": "Kenora",
    "country": "Canada",
    "iata": "YQK",
    "icao": "CYQK",
    "lat": "49.788334",
    "lon": "-94.363056",
    "timezone": "-6",
    "dst": "A",
    "alt": 1332
  }
},
{
  "model": "travels.airport",
  "pk": 116,
  "fields": {
    "name": "Lethbridge",
    "city": "Lethbridge",
    "country": "Canada",
    "iata": "YQL",
    "icao": "CYQL",
    "lat": "49.630278",
    "lon": "-112.799722",
    "timezone": "-7",
    "dst": "A",
    "alt": 3047
  }
},
{
  "model": "travels.airport",
  "pk": 117,
  "fields": {
    "name": "Greater Moncton Intl",
    "city": "Moncton",
    "country": "Canada",
    "iata": "YQM",
    "icao": "CYQM",
    "lat": "46.112221",
    "lon": "-64.678611",
    "timezone": "-4",
    "dst": "A",
    "alt": 232
  }
},
{
  "model": "travels.airport",
  "pk": 119,
  "fields": {
    "name": "Comox",
    "city": "Comox",
    "country": "Canada",
    "iata": "YQQ",
    "icao": "CYQQ",
    "lat": "49.710833",
    "lon": "-124.886667",
    "timezone": "-8",
    "dst": "A",
    "alt": 84
  }
},
{
  "model": "travels.airport",
  "pk": 120,
  "fields": {
    "name": "Regina Intl",
    "city": "Regina",
    "country": "Canada",
    "iata": "YQR",
    "icao": "CYQR",
    "lat": "50.431944",
    "lon": "-104.665833",
    "timezone": "-6",
    "dst": "N",
    "alt": 1894
  }
},
{
  "model": "travels.airport",
  "pk": 121,
  "fields": {
    "name": "Thunder Bay",
    "city": "Thunder Bay",
    "country": "Canada",
    "iata": "YQT",
    "icao": "CYQT",
    "lat": "48.371944",
    "lon": "-89.323889",
    "timezone": "-5",
    "dst": "A",
    "alt": 653
  }
},
{
  "model": "travels.airport",
  "pk": 122,
  "fields": {
    "name": "Grande Prairie",
    "city": "Grande Prairie",
    "country": "Canada",
    "iata": "YQU",
    "icao": "CYQU",
    "lat": "55.179722",
    "lon": "-118.885",
    "timezone": "-7",
    "dst": "A",
    "alt": 2195
  }
},
{
  "model": "travels.airport",
  "pk": 123,
  "fields": {
    "name": "Yorkton Muni",
    "city": "Yorkton",
    "country": "Canada",
    "iata": "YQV",
    "icao": "CYQV",
    "lat": "51.264721",
    "lon": "-102.461667",
    "timezone": "-6",
    "dst": "N",
    "alt": 1635
  }
},
{
  "model": "travels.airport",
  "pk": 124,
  "fields": {
    "name": "North Battleford",
    "city": "North Battleford",
    "country": "Canada",
    "iata": "YQW",
    "icao": "CYQW",
    "lat": "52.769167",
    "lon": "-108.24361",
    "timezone": "-6",
    "dst": "N",
    "alt": 1799
  }
},
{
  "model": "travels.airport",
  "pk": 125,
  "fields": {
    "name": "Gander Intl",
    "city": "Gander",
    "country": "Canada",
    "iata": "YQX",
    "icao": "CYQX",
    "lat": "48.936944",
    "lon": "-54.568056",
    "timezone": "-4",
    "dst": "A",
    "alt": 496
  }
},
{
  "model": "travels.airport",
  "pk": 126,
  "fields": {
    "name": "Sydney",
    "city": "Sydney",
    "country": "Canada",
    "iata": "YQY",
    "icao": "CYQY",
    "lat": "46.161388",
    "lon": "-60.047779",
    "timezone": "-4",
    "dst": "A",
    "alt": 203
  }
},
{
  "model": "travels.airport",
  "pk": 127,
  "fields": {
    "name": "Quesnel",
    "city": "Quesnel",
    "country": "Canada",
    "iata": "YQZ",
    "icao": "CYQZ",
    "lat": "53.026112",
    "lon": "-122.510278",
    "timezone": "-8",
    "dst": "A",
    "alt": 1789
  }
},
{
  "model": "travels.airport",
  "pk": 128,
  "fields": {
    "name": "Resolute Bay",
    "city": "Resolute",
    "country": "Canada",
    "iata": "YRB",
    "icao": "CYRB",
    "lat": "74.716944",
    "lon": "-94.969444",
    "timezone": "-6",
    "dst": "A",
    "alt": 215
  }
},
{
  "model": "travels.airport",
  "pk": 129,
  "fields": {
    "name": "Riviere Du Loup",
    "city": "Riviere Du Loup",
    "country": "Canada",
    "iata": "YRI",
    "icao": "CYRI",
    "lat": "47.764444",
    "lon": "-69.584722",
    "timezone": "-5",
    "dst": "A",
    "alt": 427
  }
},
{
  "model": "travels.airport",
  "pk": 130,
  "fields": {
    "name": "Roberval",
    "city": "Roberval",
    "country": "Canada",
    "iata": "YRJ",
    "icao": "CYRJ",
    "lat": "48.52",
    "lon": "-72.265556",
    "timezone": "-5",
    "dst": "A",
    "alt": 586
  }
},
{
  "model": "travels.airport",
  "pk": 131,
  "fields": {
    "name": "Rocky Mountain House",
    "city": "Rocky Mountain House",
    "country": "Canada",
    "iata": "YRM",
    "icao": "CYRM",
    "lat": "52.429722",
    "lon": "-114.904167",
    "timezone": "-7",
    "dst": "A",
    "alt": 3244
  }
},
{
  "model": "travels.airport",
  "pk": 132,
  "fields": {
    "name": "Rankin Inlet",
    "city": "Rankin Inlet",
    "country": "Canada",
    "iata": "YRT",
    "icao": "CYRT",
    "lat": "62.81139",
    "lon": "-92.115833",
    "timezone": "-6",
    "dst": "A",
    "alt": 94
  }
},
{
  "model": "travels.airport",
  "pk": 133,
  "fields": {
    "name": "Sudbury",
    "city": "Sudbury",
    "country": "Canada",
    "iata": "YSB",
    "icao": "CYSB",
    "lat": "46.625",
    "lon": "-80.798889",
    "timezone": "-5",
    "dst": "A",
    "alt": 1141
  }
},
{
  "model": "travels.airport",
  "pk": 134,
  "fields": {
    "name": "Sherbrooke",
    "city": "Sherbrooke",
    "country": "Canada",
    "iata": "YSC",
    "icao": "CYSC",
    "lat": "45.438611",
    "lon": "-71.691389",
    "timezone": "-5",
    "dst": "A",
    "alt": 792
  }
},
{
  "model": "travels.airport",
  "pk": 135,
  "fields": {
    "name": "Saint John",
    "city": "St. John",
    "country": "Canada",
    "iata": "YSJ",
    "icao": "CYSJ",
    "lat": "45.316111",
    "lon": "-65.890278",
    "timezone": "-4",
    "dst": "A",
    "alt": 357
  }
},
{
  "model": "travels.airport",
  "pk": 136,
  "fields": {
    "name": "Fort Smith",
    "city": "Fort Smith",
    "country": "Canada",
    "iata": "YSM",
    "icao": "CYSM",
    "lat": "60.020278",
    "lon": "-111.961944",
    "timezone": "-7",
    "dst": "A",
    "alt": 671
  }
},
{
  "model": "travels.airport",
  "pk": 137,
  "fields": {
    "name": "Nanisivik",
    "city": "Nanisivik",
    "country": "Canada",
    "iata": "YSR",
    "icao": "CYSR",
    "lat": "72.982222",
    "lon": "-84.613611",
    "timezone": "-5",
    "dst": "A",
    "alt": 2106
  }
},
{
  "model": "travels.airport",
  "pk": 138,
  "fields": {
    "name": "Summerside",
    "city": "Summerside",
    "country": "Canada",
    "iata": "YSU",
    "icao": "CYSU",
    "lat": "46.440556",
    "lon": "-63.833611",
    "timezone": "-4",
    "dst": "A",
    "alt": 56
  }
},
{
  "model": "travels.airport",
  "pk": 139,
  "fields": {
    "name": "Sachs Harbour",
    "city": "Sachs Harbour",
    "country": "Canada",
    "iata": "YSY",
    "icao": "CYSY",
    "lat": "71.993889",
    "lon": "-125.2425",
    "timezone": "-7",
    "dst": "A",
    "alt": 282
  }
},
{
  "model": "travels.airport",
  "pk": 140,
  "fields": {
    "name": "Cape Dorset",
    "city": "Cape Dorset",
    "country": "Canada",
    "iata": "YTE",
    "icao": "CYTE",
    "lat": "64.23",
    "lon": "-76.526667",
    "timezone": "-5",
    "dst": "A",
    "alt": 164
  }
},
{
  "model": "travels.airport",
  "pk": 141,
  "fields": {
    "name": "Thompson",
    "city": "Thompson",
    "country": "Canada",
    "iata": "YTH",
    "icao": "CYTH",
    "lat": "55.801111",
    "lon": "-97.864166",
    "timezone": "-6",
    "dst": "A",
    "alt": 729
  }
},
{
  "model": "travels.airport",
  "pk": 142,
  "fields": {
    "name": "Trenton",
    "city": "Trenton",
    "country": "Canada",
    "iata": "YTR",
    "icao": "CYTR",
    "lat": "44.118889",
    "lon": "-77.528056",
    "timezone": "-5",
    "dst": "A",
    "alt": 283
  }
},
{
  "model": "travels.airport",
  "pk": 143,
  "fields": {
    "name": "Timmins",
    "city": "Timmins",
    "country": "Canada",
    "iata": "YTS",
    "icao": "CYTS",
    "lat": "48.569721",
    "lon": "-81.376667",
    "timezone": "-5",
    "dst": "A",
    "alt": 967
  }
},
{
  "model": "travels.airport",
  "pk": 144,
  "fields": {
    "name": "City Centre",
    "city": "Toronto",
    "country": "Canada",
    "iata": "YTZ",
    "icao": "CYTZ",
    "lat": "43.627499",
    "lon": "-79.396167",
    "timezone": "-5",
    "dst": "A",
    "alt": 251
  }
},
{
  "model": "travels.airport",
  "pk": 145,
  "fields": {
    "name": "Tuktoyaktuk",
    "city": "Tuktoyaktuk",
    "country": "Canada",
    "iata": "YUB",
    "icao": "CYUB",
    "lat": "69.433334",
    "lon": "-133.026389",
    "timezone": "-7",
    "dst": "A",
    "alt": 15
  }
},
{
  "model": "travels.airport",
  "pk": 146,
  "fields": {
    "name": "Pierre Elliott Trudeau Intl",
    "city": "Montreal",
    "country": "Canada",
    "iata": "YUL",
    "icao": "CYUL",
    "lat": "45.470556",
    "lon": "-73.740833",
    "timezone": "-5",
    "dst": "A",
    "alt": 118
  }
},
{
  "model": "travels.airport",
  "pk": 147,
  "fields": {
    "name": "Repulse Bay",
    "city": "Repulse Bay",
    "country": "Canada",
    "iata": "YUT",
    "icao": "CYUT",
    "lat": "66.521389",
    "lon": "-86.224722",
    "timezone": "-6",
    "dst": "A",
    "alt": 80
  }
},
{
  "model": "travels.airport",
  "pk": 148,
  "fields": {
    "name": "Hall Beach",
    "city": "Hall Beach",
    "country": "Canada",
    "iata": "YUX",
    "icao": "CYUX",
    "lat": "68.776111",
    "lon": "-81.243611",
    "timezone": "-5",
    "dst": "A",
    "alt": 27
  }
},
{
  "model": "travels.airport",
  "pk": 149,
  "fields": {
    "name": "Rouyn Noranda",
    "city": "Rouyn",
    "country": "Canada",
    "iata": "YUY",
    "icao": "CYUY",
    "lat": "48.206111",
    "lon": "-78.835556",
    "timezone": "-5",
    "dst": "A",
    "alt": 988
  }
},
{
  "model": "travels.airport",
  "pk": 150,
  "fields": {
    "name": "La Ronge",
    "city": "La Ronge",
    "country": "Canada",
    "iata": "YVC",
    "icao": "CYVC",
    "lat": "55.15139",
    "lon": "-105.261944",
    "timezone": "-6",
    "dst": "N",
    "alt": 1242
  }
},
{
  "model": "travels.airport",
  "pk": 151,
  "fields": {
    "name": "Vermilion",
    "city": "Vermillion",
    "country": "Canada",
    "iata": "YVG",
    "icao": "CYVG",
    "lat": "53.355833",
    "lon": "-110.82389",
    "timezone": "-7",
    "dst": "A",
    "alt": 2025
  }
},
{
  "model": "travels.airport",
  "pk": 152,
  "fields": {
    "name": "Qikiqtarjuaq",
    "city": "Broughton Island",
    "country": "Canada",
    "iata": "YVM",
    "icao": "CYVM",
    "lat": "67.545833",
    "lon": "-64.031389",
    "timezone": "-5",
    "dst": "A",
    "alt": 21
  }
},
{
  "model": "travels.airport",
  "pk": 153,
  "fields": {
    "name": "Val D Or",
    "city": "Val D'or",
    "country": "Canada",
    "iata": "YVO",
    "icao": "CYVO",
    "lat": "48.053333",
    "lon": "-77.782778",
    "timezone": "-5",
    "dst": "A",
    "alt": 1107
  }
},
{
  "model": "travels.airport",
  "pk": 154,
  "fields": {
    "name": "Kuujjuaq",
    "city": "Quujjuaq",
    "country": "Canada",
    "iata": "YVP",
    "icao": "CYVP",
    "lat": "58.096111",
    "lon": "-68.426944",
    "timezone": "-5",
    "dst": "A",
    "alt": 129
  }
},
{
  "model": "travels.airport",
  "pk": 155,
  "fields": {
    "name": "Norman Wells",
    "city": "Norman Wells",
    "country": "Canada",
    "iata": "YVQ",
    "icao": "CYVQ",
    "lat": "65.281617",
    "lon": "-126.798219",
    "timezone": "-7",
    "dst": "A",
    "alt": 238
  }
},
{
  "model": "travels.airport",
  "pk": 156,
  "fields": {
    "name": "Vancouver Intl",
    "city": "Vancouver",
    "country": "Canada",
    "iata": "YVR",
    "icao": "CYVR",
    "lat": "49.193889",
    "lon": "-123.184444",
    "timezone": "-8",
    "dst": "A",
    "alt": 14
  }
},
{
  "model": "travels.airport",
  "pk": 157,
  "fields": {
    "name": "Buffalo Narrows",
    "city": "Buffalo Narrows",
    "country": "Canada",
    "iata": "YVT",
    "icao": "CYVT",
    "lat": "55.841944",
    "lon": "-108.4175",
    "timezone": "-6",
    "dst": "N",
    "alt": 1444
  }
},
{
  "model": "travels.airport",
  "pk": 158,
  "fields": {
    "name": "Wiarton",
    "city": "Wiarton",
    "country": "Canada",
    "iata": "YVV",
    "icao": "CYVV",
    "lat": "44.745834",
    "lon": "-81.107222",
    "timezone": "-5",
    "dst": "A",
    "alt": 729
  }
},
{
  "model": "travels.airport",
  "pk": 159,
  "fields": {
    "name": "Petawawa",
    "city": "Petawawa",
    "country": "Canada",
    "iata": "YWA",
    "icao": "CYWA",
    "lat": "45.952221",
    "lon": "-77.319168",
    "timezone": "-5",
    "dst": "A",
    "alt": 427
  }
},
{
  "model": "travels.airport",
  "pk": 160,
  "fields": {
    "name": "Winnipeg Intl",
    "city": "Winnipeg",
    "country": "Canada",
    "iata": "YWG",
    "icao": "CYWG",
    "lat": "49.910036",
    "lon": "-97.239886",
    "timezone": "-6",
    "dst": "A",
    "alt": 783
  }
},
{
  "model": "travels.airport",
  "pk": 161,
  "fields": {
    "name": "Wabush",
    "city": "Wabush",
    "country": "Canada",
    "iata": "YWK",
    "icao": "CYWK",
    "lat": "52.921944",
    "lon": "-66.864444",
    "timezone": "-4",
    "dst": "A",
    "alt": 1808
  }
},
{
  "model": "travels.airport",
  "pk": 162,
  "fields": {
    "name": "Williams Lake",
    "city": "Williams Lake",
    "country": "Canada",
    "iata": "YWL",
    "icao": "CYWL",
    "lat": "52.183056",
    "lon": "-122.054167",
    "timezone": "-8",
    "dst": "A",
    "alt": 3085
  }
},
{
  "model": "travels.airport",
  "pk": 163,
  "fields": {
    "name": "Wrigley",
    "city": "Wrigley",
    "country": "Canada",
    "iata": "YWY",
    "icao": "CYWY",
    "lat": "63.209444",
    "lon": "-123.436667",
    "timezone": "-7",
    "dst": "A",
    "alt": 489
  }
},
{
  "model": "travels.airport",
  "pk": 164,
  "fields": {
    "name": "Canadian Rockies Intl",
    "city": "Cranbrook",
    "country": "Canada",
    "iata": "YXC",
    "icao": "CYXC",
    "lat": "49.612222",
    "lon": "-115.781944",
    "timezone": "-7",
    "dst": "A",
    "alt": 3084
  }
},
{
  "model": "travels.airport",
  "pk": 165,
  "fields": {
    "name": "Edmonton City Centre",
    "city": "Edmonton",
    "country": "Canada",
    "iata": "YXD",
    "icao": "CYXD",
    "lat": "53.5725",
    "lon": "-113.520556",
    "timezone": "-7",
    "dst": "A",
    "alt": 2200
  }
},
{
  "model": "travels.airport",
  "pk": 166,
  "fields": {
    "name": "Saskatoon J G Diefenbaker Intl",
    "city": "Saskatoon",
    "country": "Canada",
    "iata": "YXE",
    "icao": "CYXE",
    "lat": "52.170834",
    "lon": "-106.699722",
    "timezone": "-6",
    "dst": "N",
    "alt": 1653
  }
},
{
  "model": "travels.airport",
  "pk": 167,
  "fields": {
    "name": "Medicine Hat",
    "city": "Medicine Hat",
    "country": "Canada",
    "iata": "YXH",
    "icao": "CYXH",
    "lat": "50.01889",
    "lon": "-110.720833",
    "timezone": "-7",
    "dst": "A",
    "alt": 2352
  }
},
{
  "model": "travels.airport",
  "pk": 168,
  "fields": {
    "name": "Fort St John",
    "city": "Fort Saint John",
    "country": "Canada",
    "iata": "YXJ",
    "icao": "CYXJ",
    "lat": "56.238056",
    "lon": "-120.740278",
    "timezone": "-8",
    "dst": "A",
    "alt": 2280
  }
},
{
  "model": "travels.airport",
  "pk": 169,
  "fields": {
    "name": "Sioux Lookout",
    "city": "Sioux Lookout",
    "country": "Canada",
    "iata": "YXL",
    "icao": "CYXL",
    "lat": "50.113889",
    "lon": "-91.905278",
    "timezone": "-6",
    "dst": "A",
    "alt": 1258
  }
},
{
  "model": "travels.airport",
  "pk": 170,
  "fields": {
    "name": "Pangnirtung",
    "city": "Pangnirtung",
    "country": "Canada",
    "iata": "YXP",
    "icao": "CYXP",
    "lat": "66.145",
    "lon": "-65.713611",
    "timezone": "-5",
    "dst": "A",
    "alt": 75
  }
},
{
  "model": "travels.airport",
  "pk": 171,
  "fields": {
    "name": "Timiskaming Rgnl",
    "city": "Earlton",
    "country": "Canada",
    "iata": "YXR",
    "icao": "CYXR",
    "lat": "47.695",
    "lon": "-79.848889",
    "timezone": "-5",
    "dst": "A",
    "alt": 798
  }
},
{
  "model": "travels.airport",
  "pk": 172,
  "fields": {
    "name": "Prince George",
    "city": "Prince George",
    "country": "Canada",
    "iata": "YXS",
    "icao": "CYXS",
    "lat": "53.889444",
    "lon": "-122.678889",
    "timezone": "-8",
    "dst": "A",
    "alt": 2267
  }
},
{
  "model": "travels.airport",
  "pk": 173,
  "fields": {
    "name": "Terrace",
    "city": "Terrace",
    "country": "Canada",
    "iata": "YXT",
    "icao": "CYXT",
    "lat": "54.468508",
    "lon": "-128.576219",
    "timezone": "-8",
    "dst": "A",
    "alt": 713
  }
},
{
  "model": "travels.airport",
  "pk": 174,
  "fields": {
    "name": "London",
    "city": "London",
    "country": "Canada",
    "iata": "YXU",
    "icao": "CYXU",
    "lat": "43.033056",
    "lon": "-81.151111",
    "timezone": "-5",
    "dst": "A",
    "alt": 912
  }
},
{
  "model": "travels.airport",
  "pk": 175,
  "fields": {
    "name": "Abbotsford",
    "city": "Abbotsford",
    "country": "Canada",
    "iata": "YXX",
    "icao": "CYXX",
    "lat": "49.025278",
    "lon": "-122.360556",
    "timezone": "-8",
    "dst": "A",
    "alt": 195
  }
},
{
  "model": "travels.airport",
  "pk": 176,
  "fields": {
    "name": "Whitehorse Intl",
    "city": "Whitehorse",
    "country": "Canada",
    "iata": "YXY",
    "icao": "CYXY",
    "lat": "60.709553",
    "lon": "-135.067269",
    "timezone": "-8",
    "dst": "A",
    "alt": 2317
  }
},
{
  "model": "travels.airport",
  "pk": 177,
  "fields": {
    "name": "North Bay",
    "city": "North Bay",
    "country": "Canada",
    "iata": "YYB",
    "icao": "CYYB",
    "lat": "46.363611",
    "lon": "-79.422778",
    "timezone": "-5",
    "dst": "A",
    "alt": 1215
  }
},
{
  "model": "travels.airport",
  "pk": 178,
  "fields": {
    "name": "Calgary Intl",
    "city": "Calgary",
    "country": "Canada",
    "iata": "YYC",
    "icao": "CYYC",
    "lat": "51.113888",
    "lon": "-114.020278",
    "timezone": "-7",
    "dst": "A",
    "alt": 3557
  }
},
{
  "model": "travels.airport",
  "pk": 179,
  "fields": {
    "name": "Smithers",
    "city": "Smithers",
    "country": "Canada",
    "iata": "YYD",
    "icao": "CYYD",
    "lat": "54.824722",
    "lon": "-127.182778",
    "timezone": "-8",
    "dst": "A",
    "alt": 1712
  }
},
{
  "model": "travels.airport",
  "pk": 180,
  "fields": {
    "name": "Fort Nelson",
    "city": "Fort Nelson",
    "country": "Canada",
    "iata": "YYE",
    "icao": "CYYE",
    "lat": "58.836389",
    "lon": "-122.596944",
    "timezone": "-8",
    "dst": "A",
    "alt": 1253
  }
},
{
  "model": "travels.airport",
  "pk": 181,
  "fields": {
    "name": "Penticton",
    "city": "Penticton",
    "country": "Canada",
    "iata": "YYF",
    "icao": "CYYF",
    "lat": "49.463056",
    "lon": "-119.602222",
    "timezone": "-8",
    "dst": "A",
    "alt": 1129
  }
},
{
  "model": "travels.airport",
  "pk": 182,
  "fields": {
    "name": "Charlottetown",
    "city": "Charlottetown",
    "country": "Canada",
    "iata": "YYG",
    "icao": "CYYG",
    "lat": "46.290001",
    "lon": "-63.121111",
    "timezone": "-4",
    "dst": "A",
    "alt": 160
  }
},
{
  "model": "travels.airport",
  "pk": 183,
  "fields": {
    "name": "Taloyoak",
    "city": "Spence Bay",
    "country": "Canada",
    "iata": "YYH",
    "icao": "CYYH",
    "lat": "69.546667",
    "lon": "-93.576667",
    "timezone": "-6",
    "dst": "A",
    "alt": 92
  }
},
{
  "model": "travels.airport",
  "pk": 184,
  "fields": {
    "name": "Victoria Intl",
    "city": "Victoria",
    "country": "Canada",
    "iata": "YYJ",
    "icao": "CYYJ",
    "lat": "48.646944",
    "lon": "-123.425833",
    "timezone": "-8",
    "dst": "A",
    "alt": 63
  }
},
{
  "model": "travels.airport",
  "pk": 185,
  "fields": {
    "name": "Lynn Lake",
    "city": "Lynn Lake",
    "country": "Canada",
    "iata": "YYL",
    "icao": "CYYL",
    "lat": "56.863888",
    "lon": "-101.07611",
    "timezone": "-6",
    "dst": "A",
    "alt": 1170
  }
},
{
  "model": "travels.airport",
  "pk": 186,
  "fields": {
    "name": "Swift Current",
    "city": "Swift Current",
    "country": "Canada",
    "iata": "YYN",
    "icao": "CYYN",
    "lat": "50.291944",
    "lon": "-107.690556",
    "timezone": "-6",
    "dst": "N",
    "alt": 2680
  }
},
{
  "model": "travels.airport",
  "pk": 187,
  "fields": {
    "name": "Churchill",
    "city": "Churchill",
    "country": "Canada",
    "iata": "YYQ",
    "icao": "CYYQ",
    "lat": "58.739167",
    "lon": "-94.065",
    "timezone": "-6",
    "dst": "A",
    "alt": 94
  }
},
{
  "model": "travels.airport",
  "pk": 188,
  "fields": {
    "name": "Goose Bay",
    "city": "Goose Bay",
    "country": "Canada",
    "iata": "YYR",
    "icao": "CYYR",
    "lat": "53.319168",
    "lon": "-60.425833",
    "timezone": "-4",
    "dst": "A",
    "alt": 160
  }
},
{
  "model": "travels.airport",
  "pk": 189,
  "fields": {
    "name": "St Johns Intl",
    "city": "St. John's",
    "country": "Canada",
    "iata": "YYT",
    "icao": "CYYT",
    "lat": "47.61861",
    "lon": "-52.751945",
    "timezone": "-3.5",
    "dst": "A",
    "alt": 461
  }
},
{
  "model": "travels.airport",
  "pk": 190,
  "fields": {
    "name": "Kapuskasing",
    "city": "Kapuskasing",
    "country": "Canada",
    "iata": "YYU",
    "icao": "CYYU",
    "lat": "49.413889",
    "lon": "-82.4675",
    "timezone": "-5",
    "dst": "A",
    "alt": 743
  }
},
{
  "model": "travels.airport",
  "pk": 191,
  "fields": {
    "name": "Armstrong",
    "city": "Armstrong",
    "country": "Canada",
    "iata": "YYW",
    "icao": "CYYW",
    "lat": "50.290279",
    "lon": "-88.909721",
    "timezone": "-5",
    "dst": "A",
    "alt": 1058
  }
},
{
  "model": "travels.airport",
  "pk": 192,
  "fields": {
    "name": "Mont Joli",
    "city": "Mont Joli",
    "country": "Canada",
    "iata": "YYY",
    "icao": "CYYY",
    "lat": "48.608612",
    "lon": "-68.208056",
    "timezone": "-5",
    "dst": "A",
    "alt": 172
  }
},
{
  "model": "travels.airport",
  "pk": 193,
  "fields": {
    "name": "Lester B Pearson Intl",
    "city": "Toronto",
    "country": "Canada",
    "iata": "YYZ",
    "icao": "CYYZ",
    "lat": "43.677223",
    "lon": "-79.630556",
    "timezone": "-5",
    "dst": "A",
    "alt": 569
  }
},
{
  "model": "travels.airport",
  "pk": 194,
  "fields": {
    "name": "Downsview",
    "city": "Toronto",
    "country": "Canada",
    "iata": "YZD",
    "icao": "CYZD",
    "lat": "43.7425",
    "lon": "-79.465556",
    "timezone": "-5",
    "dst": "A",
    "alt": 652
  }
},
{
  "model": "travels.airport",
  "pk": 195,
  "fields": {
    "name": "Gore Bay Manitoulin",
    "city": "Gore Bay",
    "country": "Canada",
    "iata": "YZE",
    "icao": "CYZE",
    "lat": "45.885277",
    "lon": "-82.567778",
    "timezone": "-5",
    "dst": "A",
    "alt": 635
  }
},
{
  "model": "travels.airport",
  "pk": 196,
  "fields": {
    "name": "Yellowknife",
    "city": "Yellowknife",
    "country": "Canada",
    "iata": "YZF",
    "icao": "CYZF",
    "lat": "62.462778",
    "lon": "-114.440278",
    "timezone": "-7",
    "dst": "A",
    "alt": 675
  }
},
{
  "model": "travels.airport",
  "pk": 197,
  "fields": {
    "name": "Slave Lake",
    "city": "Slave Lake",
    "country": "Canada",
    "iata": "YZH",
    "icao": "CYZH",
    "lat": "55.293056",
    "lon": "-114.777222",
    "timezone": "-7",
    "dst": "A",
    "alt": 1912
  }
},
{
  "model": "travels.airport",
  "pk": 198,
  "fields": {
    "name": "Sandspit",
    "city": "Sandspit",
    "country": "Canada",
    "iata": "YZP",
    "icao": "CYZP",
    "lat": "53.254333",
    "lon": "-131.813833",
    "timezone": "-8",
    "dst": "A",
    "alt": 21
  }
},
{
  "model": "travels.airport",
  "pk": 199,
  "fields": {
    "name": "Chris Hadfield",
    "city": "Sarnia",
    "country": "Canada",
    "iata": "YZR",
    "icao": "CYZR",
    "lat": "42.999444",
    "lon": "-82.308889",
    "timezone": "-5",
    "dst": "A",
    "alt": 594
  }
},
{
  "model": "travels.airport",
  "pk": 200,
  "fields": {
    "name": "Port Hardy",
    "city": "Port Hardy",
    "country": "Canada",
    "iata": "YZT",
    "icao": "CYZT",
    "lat": "50.680556",
    "lon": "-127.366667",
    "timezone": "-8",
    "dst": "A",
    "alt": 71
  }
},
{
  "model": "travels.airport",
  "pk": 201,
  "fields": {
    "name": "Whitecourt",
    "city": "Whitecourt",
    "country": "Canada",
    "iata": "YZU",
    "icao": "CYZU",
    "lat": "54.14389",
    "lon": "-115.786667",
    "timezone": "-7",
    "dst": "A",
    "alt": 2567
  }
},
{
  "model": "travels.airport",
  "pk": 202,
  "fields": {
    "name": "Sept Iles",
    "city": "Sept-iles",
    "country": "Canada",
    "iata": "YZV",
    "icao": "CYZV",
    "lat": "50.223333",
    "lon": "-66.265556",
    "timezone": "-5",
    "dst": "A",
    "alt": 180
  }
},
{
  "model": "travels.airport",
  "pk": 203,
  "fields": {
    "name": "Teslin",
    "city": "Teslin",
    "country": "Canada",
    "iata": "YZW",
    "icao": "CYZW",
    "lat": "60.172779",
    "lon": "-132.742778",
    "timezone": "-8",
    "dst": "A",
    "alt": 2313
  }
},
{
  "model": "travels.airport",
  "pk": 204,
  "fields": {
    "name": "Greenwood",
    "city": "Greenwood",
    "country": "Canada",
    "iata": "YZX",
    "icao": "CYZX",
    "lat": "44.984444",
    "lon": "-64.916944",
    "timezone": "-4",
    "dst": "A",
    "alt": 92
  }
},
{
  "model": "travels.airport",
  "pk": 205,
  "fields": {
    "name": "Faro",
    "city": "Faro",
    "country": "Canada",
    "iata": "ZFA",
    "icao": "CZFA",
    "lat": "62.2075",
    "lon": "-133.375833",
    "timezone": "-8",
    "dst": "A",
    "alt": 2351
  }
},
{
  "model": "travels.airport",
  "pk": 206,
  "fields": {
    "name": "Fort Mcpherson",
    "city": "Fort Mcpherson",
    "country": "Canada",
    "iata": "ZFM",
    "icao": "CZFM",
    "lat": "67.4075",
    "lon": "-134.860556",
    "timezone": "-7",
    "dst": "A",
    "alt": 116
  }
},
{
  "model": "travels.airport",
  "pk": 207,
  "fields": {
    "name": "Blida",
    "city": "Blida",
    "country": "Algeria",
    "iata": "",
    "icao": "DAAB",
    "lat": "36.503613",
    "lon": "2.814167",
    "timezone": "1",
    "dst": "N",
    "alt": 535
  }
},
{
  "model": "travels.airport",
  "pk": 208,
  "fields": {
    "name": "Bou Saada",
    "city": "Bou Saada",
    "country": "Algeria",
    "iata": "",
    "icao": "DAAD",
    "lat": "35.3325",
    "lon": "4.206389",
    "timezone": "1",
    "dst": "N",
    "alt": 1506
  }
},
{
  "model": "travels.airport",
  "pk": 209,
  "fields": {
    "name": "Soummam",
    "city": "Bejaja",
    "country": "Algeria",
    "iata": "BJA",
    "icao": "DAAE",
    "lat": "36.711997",
    "lon": "5.069922",
    "timezone": "1",
    "dst": "N",
    "alt": 20
  }
},
{
  "model": "travels.airport",
  "pk": 210,
  "fields": {
    "name": "Houari Boumediene",
    "city": "Algier",
    "country": "Algeria",
    "iata": "ALG",
    "icao": "DAAG",
    "lat": "36.691014",
    "lon": "3.215408",
    "timezone": "1",
    "dst": "N",
    "alt": 82
  }
},
{
  "model": "travels.airport",
  "pk": 211,
  "fields": {
    "name": "Tiska",
    "city": "Djanet",
    "country": "Algeria",
    "iata": "DJG",
    "icao": "DAAJ",
    "lat": "24.292767",
    "lon": "9.452444",
    "timezone": "1",
    "dst": "N",
    "alt": 3176
  }
},
{
  "model": "travels.airport",
  "pk": 212,
  "fields": {
    "name": "Boufarik",
    "city": "Boufarik",
    "country": "Algeria",
    "iata": "QFD",
    "icao": "DAAK",
    "lat": "36.545834",
    "lon": "2.876111",
    "timezone": "1",
    "dst": "N",
    "alt": 335
  }
},
{
  "model": "travels.airport",
  "pk": 213,
  "fields": {
    "name": "Reggane",
    "city": "Reggan",
    "country": "Algeria",
    "iata": "",
    "icao": "DAAN",
    "lat": "26.710103",
    "lon": "0.285647",
    "timezone": "1",
    "dst": "N",
    "alt": 955
  }
},
{
  "model": "travels.airport",
  "pk": 214,
  "fields": {
    "name": "Illizi Takhamalt",
    "city": "Illizi",
    "country": "Algeria",
    "iata": "VVZ",
    "icao": "DAAP",
    "lat": "26.723536",
    "lon": "8.622653",
    "timezone": "1",
    "dst": "N",
    "alt": 1778
  }
},
{
  "model": "travels.airport",
  "pk": 215,
  "fields": {
    "name": "Ain Oussera",
    "city": "Ain Oussera",
    "country": "Algeria",
    "iata": "",
    "icao": "DAAQ",
    "lat": "35.525414",
    "lon": "2.878714",
    "timezone": "1",
    "dst": "N",
    "alt": 2132
  }
},
{
  "model": "travels.airport",
  "pk": 216,
  "fields": {
    "name": "Tamanrasset",
    "city": "Tamanrasset",
    "country": "Algeria",
    "iata": "TMR",
    "icao": "DAAT",
    "lat": "22.811461",
    "lon": "5.451075",
    "timezone": "1",
    "dst": "N",
    "alt": 4518
  }
},
{
  "model": "travels.airport",
  "pk": 217,
  "fields": {
    "name": "Jijel",
    "city": "Jijel",
    "country": "Algeria",
    "iata": "GJL",
    "icao": "DAAV",
    "lat": "36.795136",
    "lon": "5.873608",
    "timezone": "1",
    "dst": "N",
    "alt": 36
  }
},
{
  "model": "travels.airport",
  "pk": 218,
  "fields": {
    "name": "Mecheria",
    "city": "Mecheria",
    "country": "Algeria",
    "iata": "",
    "icao": "DAAY",
    "lat": "33.535853",
    "lon": "-0.242353",
    "timezone": "1",
    "dst": "N",
    "alt": 3855
  }
},
{
  "model": "travels.airport",
  "pk": 219,
  "fields": {
    "name": "Relizane",
    "city": "Relizane",
    "country": "Algeria",
    "iata": "",
    "icao": "DAAZ",
    "lat": "35.752239",
    "lon": "0.626272",
    "timezone": "1",
    "dst": "N",
    "alt": 282
  }
},
{
  "model": "travels.airport",
  "pk": 220,
  "fields": {
    "name": "Annaba",
    "city": "Annaba",
    "country": "Algeria",
    "iata": "AAE",
    "icao": "DABB",
    "lat": "36.822225",
    "lon": "7.809167",
    "timezone": "1",
    "dst": "N",
    "alt": 16
  }
},
{
  "model": "travels.airport",
  "pk": 221,
  "fields": {
    "name": "Mohamed Boudiaf Intl",
    "city": "Constantine",
    "country": "Algeria",
    "iata": "CZL",
    "icao": "DABC",
    "lat": "36.276028",
    "lon": "6.620386",
    "timezone": "1",
    "dst": "N",
    "alt": 2265
  }
},
{
  "model": "travels.airport",
  "pk": 222,
  "fields": {
    "name": "Cheikh Larbi Tebessi",
    "city": "Tebessa",
    "country": "Algeria",
    "iata": "TEE",
    "icao": "DABS",
    "lat": "35.431611",
    "lon": "8.120717",
    "timezone": "1",
    "dst": "N",
    "alt": 2661
  }
},
{
  "model": "travels.airport",
  "pk": 224,
  "fields": {
    "name": "Hassi R Mel",
    "city": "Tilrempt",
    "country": "Algeria",
    "iata": "HRM",
    "icao": "DAFH",
    "lat": "32.930431",
    "lon": "3.311542",
    "timezone": "1",
    "dst": "N",
    "alt": 2540
  }
},
{
  "model": "travels.airport",
  "pk": 225,
  "fields": {
    "name": "Bou Chekif",
    "city": "Tiaret",
    "country": "Algeria",
    "iata": "TID",
    "icao": "DAOB",
    "lat": "35.341136",
    "lon": "1.463147",
    "timezone": "1",
    "dst": "N",
    "alt": 3245
  }
},
{
  "model": "travels.airport",
  "pk": 226,
  "fields": {
    "name": "Bou Sfer",
    "city": "Bou Sfer",
    "country": "Algeria",
    "iata": "",
    "icao": "DAOE",
    "lat": "35.735389",
    "lon": "-0.805389",
    "timezone": "1",
    "dst": "N",
    "alt": 187
  }
},
{
  "model": "travels.airport",
  "pk": 227,
  "fields": {
    "name": "Tindouf",
    "city": "Tindouf",
    "country": "Algeria",
    "iata": "TIN",
    "icao": "DAOF",
    "lat": "27.700372",
    "lon": "-8.167103",
    "timezone": "1",
    "dst": "N",
    "alt": 1453
  }
},
{
  "model": "travels.airport",
  "pk": 228,
  "fields": {
    "name": "Ech Cheliff",
    "city": "Ech-cheliff",
    "country": "Algeria",
    "iata": "QAS",
    "icao": "DAOI",
    "lat": "36.212658",
    "lon": "1.331775",
    "timezone": "1",
    "dst": "N",
    "alt": 463
  }
},
{
  "model": "travels.airport",
  "pk": 229,
  "fields": {
    "name": "Tafaraoui",
    "city": "Oran",
    "country": "Algeria",
    "iata": "TAF",
    "icao": "DAOL",
    "lat": "35.542444",
    "lon": "-0.532278",
    "timezone": "1",
    "dst": "N",
    "alt": 367
  }
},
{
  "model": "travels.airport",
  "pk": 230,
  "fields": {
    "name": "Zenata",
    "city": "Tlemcen",
    "country": "Algeria",
    "iata": "TLM",
    "icao": "DAON",
    "lat": "35.016667",
    "lon": "-1.45",
    "timezone": "1",
    "dst": "N",
    "alt": 814
  }
},
{
  "model": "travels.airport",
  "pk": 231,
  "fields": {
    "name": "Es Senia",
    "city": "Oran",
    "country": "Algeria",
    "iata": "ORN",
    "icao": "DAOO",
    "lat": "35.623858",
    "lon": "-0.621183",
    "timezone": "1",
    "dst": "N",
    "alt": 295
  }
},
{
  "model": "travels.airport",
  "pk": 232,
  "fields": {
    "name": "Sidi Bel Abbes",
    "city": "Sidi Bel Abbes",
    "country": "Algeria",
    "iata": "",
    "icao": "DAOS",
    "lat": "35.171775",
    "lon": "-0.593275",
    "timezone": "1",
    "dst": "N",
    "alt": 1614
  }
},
{
  "model": "travels.airport",
  "pk": 233,
  "fields": {
    "name": "Ghriss",
    "city": "Ghriss",
    "country": "Algeria",
    "iata": "MUW",
    "icao": "DAOV",
    "lat": "35.207725",
    "lon": "0.147142",
    "timezone": "1",
    "dst": "N",
    "alt": 1686
  }
},
{
  "model": "travels.airport",
  "pk": 234,
  "fields": {
    "name": "Touat Cheikh Sidi Mohamed Belkebir",
    "city": "Adrar",
    "country": "Algeria",
    "iata": "AZR",
    "icao": "DAUA",
    "lat": "27.837589",
    "lon": "-0.186414",
    "timezone": "1",
    "dst": "N",
    "alt": 919
  }
},
{
  "model": "travels.airport",
  "pk": 235,
  "fields": {
    "name": "Biskra",
    "city": "Biskra",
    "country": "Algeria",
    "iata": "BSK",
    "icao": "DAUB",
    "lat": "34.793289",
    "lon": "5.738231",
    "timezone": "1",
    "dst": "N",
    "alt": 289
  }
},
{
  "model": "travels.airport",
  "pk": 236,
  "fields": {
    "name": "El Golea",
    "city": "El Golea",
    "country": "Algeria",
    "iata": "ELG",
    "icao": "DAUE",
    "lat": "30.571294",
    "lon": "2.859586",
    "timezone": "1",
    "dst": "N",
    "alt": 1306
  }
},
{
  "model": "travels.airport",
  "pk": 237,
  "fields": {
    "name": "Noumerat",
    "city": "Ghardaia",
    "country": "Algeria",
    "iata": "GHA",
    "icao": "DAUG",
    "lat": "32.384106",
    "lon": "3.794114",
    "timezone": "1",
    "dst": "N",
    "alt": 1512
  }
},
{
  "model": "travels.airport",
  "pk": 238,
  "fields": {
    "name": "Oued Irara",
    "city": "Hassi Messaoud",
    "country": "Algeria",
    "iata": "HME",
    "icao": "DAUH",
    "lat": "31.672972",
    "lon": "6.140444",
    "timezone": "1",
    "dst": "N",
    "alt": 463
  }
},
{
  "model": "travels.airport",
  "pk": 239,
  "fields": {
    "name": "In Salah",
    "city": "In Salah",
    "country": "Algeria",
    "iata": "INZ",
    "icao": "DAUI",
    "lat": "27.251022",
    "lon": "2.512017",
    "timezone": "1",
    "dst": "N",
    "alt": 896
  }
},
{
  "model": "travels.airport",
  "pk": 240,
  "fields": {
    "name": "Sidi Mahdi",
    "city": "Touggourt",
    "country": "Algeria",
    "iata": "TGR",
    "icao": "DAUK",
    "lat": "33.067803",
    "lon": "6.088672",
    "timezone": "1",
    "dst": "N",
    "alt": 279
  }
},
{
  "model": "travels.airport",
  "pk": 241,
  "fields": {
    "name": "Laghouat",
    "city": "Laghouat",
    "country": "Algeria",
    "iata": "LOO",
    "icao": "DAUL",
    "lat": "33.764383",
    "lon": "2.928344",
    "timezone": "1",
    "dst": "N",
    "alt": 2510
  }
},
{
  "model": "travels.airport",
  "pk": 242,
  "fields": {
    "name": "Timimoun",
    "city": "Timimoun",
    "country": "Algeria",
    "iata": "TMX",
    "icao": "DAUT",
    "lat": "29.237119",
    "lon": "0.276033",
    "timezone": "1",
    "dst": "N",
    "alt": 1027
  }
},
{
  "model": "travels.airport",
  "pk": 243,
  "fields": {
    "name": "Ouargla",
    "city": "Ouargla",
    "country": "Algeria",
    "iata": "OGX",
    "icao": "DAUU",
    "lat": "31.917223",
    "lon": "5.412778",
    "timezone": "1",
    "dst": "N",
    "alt": 492
  }
},
{
  "model": "travels.airport",
  "pk": 244,
  "fields": {
    "name": "In Amenas",
    "city": "Zarzaitine",
    "country": "Algeria",
    "iata": "IAM",
    "icao": "DAUZ",
    "lat": "28.05155",
    "lon": "9.642911",
    "timezone": "1",
    "dst": "N",
    "alt": 1847
  }
},
{
  "model": "travels.airport",
  "pk": 245,
  "fields": {
    "name": "Cadjehoun",
    "city": "Cotonou",
    "country": "Benin",
    "iata": "COO",
    "icao": "DBBB",
    "lat": "6.357228",
    "lon": "2.384353",
    "timezone": "1",
    "dst": "N",
    "alt": 19
  }
},
{
  "model": "travels.airport",
  "pk": 246,
  "fields": {
    "name": "Ouagadougou",
    "city": "Ouagadougou",
    "country": "Burkina Faso",
    "iata": "OUA",
    "icao": "DFFD",
    "lat": "12.353194",
    "lon": "-1.512417",
    "timezone": "0",
    "dst": "N",
    "alt": 1037
  }
},
{
  "model": "travels.airport",
  "pk": 247,
  "fields": {
    "name": "Bobo Dioulasso",
    "city": "Bobo-dioulasso",
    "country": "Burkina Faso",
    "iata": "BOY",
    "icao": "DFOO",
    "lat": "11.160056",
    "lon": "-4.330969",
    "timezone": "0",
    "dst": "N",
    "alt": 1511
  }
},
{
  "model": "travels.airport",
  "pk": 248,
  "fields": {
    "name": "Kotoka Intl",
    "city": "Accra",
    "country": "Ghana",
    "iata": "ACC",
    "icao": "DGAA",
    "lat": "5.605186",
    "lon": "-0.166786",
    "timezone": "0",
    "dst": "N",
    "alt": 205
  }
},
{
  "model": "travels.airport",
  "pk": 249,
  "fields": {
    "name": "Tamale",
    "city": "Tamale",
    "country": "Ghana",
    "iata": "TML",
    "icao": "DGLE",
    "lat": "9.557192",
    "lon": "-0.863214",
    "timezone": "0",
    "dst": "N",
    "alt": 553
  }
},
{
  "model": "travels.airport",
  "pk": 250,
  "fields": {
    "name": "Wa",
    "city": "Wa",
    "country": "Ghana",
    "iata": "",
    "icao": "DGLW",
    "lat": "10.082664",
    "lon": "-2.507694",
    "timezone": "0",
    "dst": "N",
    "alt": 1060
  }
},
{
  "model": "travels.airport",
  "pk": 251,
  "fields": {
    "name": "Sunyani",
    "city": "Sunyani",
    "country": "Ghana",
    "iata": "NYI",
    "icao": "DGSN",
    "lat": "7.361828",
    "lon": "-2.328756",
    "timezone": "0",
    "dst": "N",
    "alt": 1014
  }
},
{
  "model": "travels.airport",
  "pk": 252,
  "fields": {
    "name": "Takoradi",
    "city": "Takoradi",
    "country": "Ghana",
    "iata": "TKD",
    "icao": "DGTK",
    "lat": "4.896056",
    "lon": "-1.774756",
    "timezone": "0",
    "dst": "N",
    "alt": 21
  }
},
{
  "model": "travels.airport",
  "pk": 253,
  "fields": {
    "name": "Abidjan Felix Houphouet Boigny Intl",
    "city": "Abidjan",
    "country": "Cote d'Ivoire",
    "iata": "ABJ",
    "icao": "DIAP",
    "lat": "5.261386",
    "lon": "-3.926294",
    "timezone": "0",
    "dst": "N",
    "alt": 21
  }
},
{
  "model": "travels.airport",
  "pk": 254,
  "fields": {
    "name": "Bouake",
    "city": "Bouake",
    "country": "Cote d'Ivoire",
    "iata": "BYK",
    "icao": "DIBK",
    "lat": "7.7388",
    "lon": "-5.073667",
    "timezone": "0",
    "dst": "N",
    "alt": 1230
  }
},
{
  "model": "travels.airport",
  "pk": 255,
  "fields": {
    "name": "Daloa",
    "city": "Daloa",
    "country": "Cote d'Ivoire",
    "iata": "DJO",
    "icao": "DIDL",
    "lat": "6.792808",
    "lon": "-6.473189",
    "timezone": "0",
    "dst": "N",
    "alt": 823
  }
},
{
  "model": "travels.airport",
  "pk": 256,
  "fields": {
    "name": "Korhogo",
    "city": "Korhogo",
    "country": "Cote d'Ivoire",
    "iata": "HGO",
    "icao": "DIKO",
    "lat": "9.387183",
    "lon": "-5.556664",
    "timezone": "0",
    "dst": "N",
    "alt": 1214
  }
},
{
  "model": "travels.airport",
  "pk": 257,
  "fields": {
    "name": "Man",
    "city": "Man",
    "country": "Cote d'Ivoire",
    "iata": "MJC",
    "icao": "DIMN",
    "lat": "7.272069",
    "lon": "-7.587364",
    "timezone": "0",
    "dst": "N",
    "alt": 1089
  }
},
{
  "model": "travels.airport",
  "pk": 258,
  "fields": {
    "name": "San Pedro",
    "city": "San Pedro",
    "country": "Cote d'Ivoire",
    "iata": "SPY",
    "icao": "DISP",
    "lat": "4.746717",
    "lon": "-6.660817",
    "timezone": "0",
    "dst": "N",
    "alt": 26
  }
},
{
  "model": "travels.airport",
  "pk": 259,
  "fields": {
    "name": "Yamoussoukro",
    "city": "Yamoussoukro",
    "country": "Cote d'Ivoire",
    "iata": "ASK",
    "icao": "DIYO",
    "lat": "6.903167",
    "lon": "-5.365581",
    "timezone": "0",
    "dst": "N",
    "alt": 699
  }
},
{
  "model": "travels.airport",
  "pk": 260,
  "fields": {
    "name": "Nnamdi Azikiwe Intl",
    "city": "Abuja",
    "country": "Nigeria",
    "iata": "ABV",
    "icao": "DNAA",
    "lat": "9.006792",
    "lon": "7.263172",
    "timezone": "1",
    "dst": "N",
    "alt": 1123
  }
},
{
  "model": "travels.airport",
  "pk": 261,
  "fields": {
    "name": "Akure",
    "city": "Akure",
    "country": "Nigeria",
    "iata": "AKR",
    "icao": "DNAK",
    "lat": "7.246739",
    "lon": "5.301008",
    "timezone": "1",
    "dst": "N",
    "alt": 1100
  }
},
{
  "model": "travels.airport",
  "pk": 262,
  "fields": {
    "name": "Benin",
    "city": "Benin",
    "country": "Nigeria",
    "iata": "BNI",
    "icao": "DNBE",
    "lat": "6.316981",
    "lon": "5.599503",
    "timezone": "1",
    "dst": "N",
    "alt": 258
  }
},
{
  "model": "travels.airport",
  "pk": 263,
  "fields": {
    "name": "Calabar",
    "city": "Calabar",
    "country": "Nigeria",
    "iata": "CBQ",
    "icao": "DNCA",
    "lat": "4.976019",
    "lon": "8.347197",
    "timezone": "1",
    "dst": "N",
    "alt": 210
  }
},
{
  "model": "travels.airport",
  "pk": 264,
  "fields": {
    "name": "Enugu",
    "city": "Enugu",
    "country": "Nigeria",
    "iata": "ENU",
    "icao": "DNEN",
    "lat": "6.474272",
    "lon": "7.561961",
    "timezone": "1",
    "dst": "N",
    "alt": 466
  }
},
{
  "model": "travels.airport",
  "pk": 265,
  "fields": {
    "name": "Gusau",
    "city": "Gusau",
    "country": "Nigeria",
    "iata": "QUS",
    "icao": "DNGU",
    "lat": "12.171667",
    "lon": "6.696111",
    "timezone": "1",
    "dst": "N",
    "alt": 1520
  }
},
{
  "model": "travels.airport",
  "pk": 266,
  "fields": {
    "name": "Ibadan",
    "city": "Ibadan",
    "country": "Nigeria",
    "iata": "IBA",
    "icao": "DNIB",
    "lat": "7.362458",
    "lon": "3.978333",
    "timezone": "1",
    "dst": "N",
    "alt": 725
  }
},
{
  "model": "travels.airport",
  "pk": 267,
  "fields": {
    "name": "Ilorin",
    "city": "Ilorin",
    "country": "Nigeria",
    "iata": "ILR",
    "icao": "DNIL",
    "lat": "8.440211",
    "lon": "4.493919",
    "timezone": "1",
    "dst": "N",
    "alt": 1126
  }
},
{
  "model": "travels.airport",
  "pk": 268,
  "fields": {
    "name": "Yakubu Gowon",
    "city": "Jos",
    "country": "Nigeria",
    "iata": "JOS",
    "icao": "DNJO",
    "lat": "9.639828",
    "lon": "8.86905",
    "timezone": "1",
    "dst": "N",
    "alt": 4232
  }
},
{
  "model": "travels.airport",
  "pk": 269,
  "fields": {
    "name": "Kaduna",
    "city": "Kaduna",
    "country": "Nigeria",
    "iata": "KAD",
    "icao": "DNKA",
    "lat": "10.696025",
    "lon": "7.320114",
    "timezone": "1",
    "dst": "N",
    "alt": 2073
  }
},
{
  "model": "travels.airport",
  "pk": 270,
  "fields": {
    "name": "Mallam Aminu Intl",
    "city": "Kano",
    "country": "Nigeria",
    "iata": "KAN",
    "icao": "DNKN",
    "lat": "12.047589",
    "lon": "8.524622",
    "timezone": "1",
    "dst": "N",
    "alt": 1562
  }
},
{
  "model": "travels.airport",
  "pk": 271,
  "fields": {
    "name": "Maiduguri",
    "city": "Maiduguri",
    "country": "Nigeria",
    "iata": "MIU",
    "icao": "DNMA",
    "lat": "11.855347",
    "lon": "13.08095",
    "timezone": "1",
    "dst": "N",
    "alt": 1099
  }
},
{
  "model": "travels.airport",
  "pk": 272,
  "fields": {
    "name": "Makurdi",
    "city": "Makurdi",
    "country": "Nigeria",
    "iata": "MDI",
    "icao": "DNMK",
    "lat": "7.703883",
    "lon": "8.613939",
    "timezone": "1",
    "dst": "N",
    "alt": 371
  }
},
{
  "model": "travels.airport",
  "pk": 273,
  "fields": {
    "name": "Murtala Muhammed",
    "city": "Lagos",
    "country": "Nigeria",
    "iata": "LOS",
    "icao": "DNMM",
    "lat": "6.577369",
    "lon": "3.321156",
    "timezone": "1",
    "dst": "N",
    "alt": 135
  }
},
{
  "model": "travels.airport",
  "pk": 274,
  "fields": {
    "name": "Minna New",
    "city": "Minna",
    "country": "Nigeria",
    "iata": "MXJ",
    "icao": "DNMN",
    "lat": "9.652172",
    "lon": "6.462256",
    "timezone": "1",
    "dst": "N",
    "alt": 834
  }
},
{
  "model": "travels.airport",
  "pk": 275,
  "fields": {
    "name": "Port Harcourt Intl",
    "city": "Port Hartcourt",
    "country": "Nigeria",
    "iata": "PHC",
    "icao": "DNPO",
    "lat": "5.015494",
    "lon": "6.949594",
    "timezone": "1",
    "dst": "N",
    "alt": 87
  }
},
{
  "model": "travels.airport",
  "pk": 276,
  "fields": {
    "name": "Sadiq Abubakar Iii Intl",
    "city": "Sokoto",
    "country": "Nigeria",
    "iata": "SKO",
    "icao": "DNSO",
    "lat": "12.916322",
    "lon": "5.207189",
    "timezone": "1",
    "dst": "N",
    "alt": 1010
  }
},
{
  "model": "travels.airport",
  "pk": 277,
  "fields": {
    "name": "Yola",
    "city": "Yola",
    "country": "Nigeria",
    "iata": "YOL",
    "icao": "DNYO",
    "lat": "9.257553",
    "lon": "12.430422",
    "timezone": "1",
    "dst": "N",
    "alt": 599
  }
},
{
  "model": "travels.airport",
  "pk": 278,
  "fields": {
    "name": "Zaria",
    "city": "Zaria",
    "country": "Nigeria",
    "iata": "ZAR",
    "icao": "DNZA",
    "lat": "11.130192",
    "lon": "7.685806",
    "timezone": "1",
    "dst": "N",
    "alt": 2170
  }
},
{
  "model": "travels.airport",
  "pk": 279,
  "fields": {
    "name": "Maradi",
    "city": "Maradi",
    "country": "Niger",
    "iata": "MFQ",
    "icao": "DRRM",
    "lat": "13.502531",
    "lon": "7.126753",
    "timezone": "1",
    "dst": "N",
    "alt": 1240
  }
},
{
  "model": "travels.airport",
  "pk": 280,
  "fields": {
    "name": "Diori Hamani",
    "city": "Niamey",
    "country": "Niger",
    "iata": "NIM",
    "icao": "DRRN",
    "lat": "13.481547",
    "lon": "2.183614",
    "timezone": "1",
    "dst": "N",
    "alt": 732
  }
},
{
  "model": "travels.airport",
  "pk": 281,
  "fields": {
    "name": "Tahoua",
    "city": "Tahoua",
    "country": "Niger",
    "iata": "THZ",
    "icao": "DRRT",
    "lat": "14.875658",
    "lon": "5.265358",
    "timezone": "1",
    "dst": "N",
    "alt": 1266
  }
},
{
  "model": "travels.airport",
  "pk": 282,
  "fields": {
    "name": "Manu Dayak",
    "city": "Agadez",
    "country": "Niger",
    "iata": "AJY",
    "icao": "DRZA",
    "lat": "16.965997",
    "lon": "8.000114",
    "timezone": "1",
    "dst": "N",
    "alt": 1657
  }
},
{
  "model": "travels.airport",
  "pk": 283,
  "fields": {
    "name": "Dirkou",
    "city": "Dirkou",
    "country": "Niger",
    "iata": "",
    "icao": "DRZD",
    "lat": "18.968703",
    "lon": "12.86865",
    "timezone": "1",
    "dst": "N",
    "alt": 1273
  }
},
{
  "model": "travels.airport",
  "pk": 284,
  "fields": {
    "name": "Diffa",
    "city": "Diffa",
    "country": "Niger",
    "iata": "",
    "icao": "DRZF",
    "lat": "13.372894",
    "lon": "12.626686",
    "timezone": "1",
    "dst": "N",
    "alt": 994
  }
},
{
  "model": "travels.airport",
  "pk": 285,
  "fields": {
    "name": "Zinder",
    "city": "Zinder",
    "country": "Niger",
    "iata": "ZND",
    "icao": "DRZR",
    "lat": "13.778997",
    "lon": "8.983761",
    "timezone": "1",
    "dst": "N",
    "alt": 1516
  }
},
{
  "model": "travels.airport",
  "pk": 286,
  "fields": {
    "name": "Habib Bourguiba Intl",
    "city": "Monastir",
    "country": "Tunisia",
    "iata": "MIR",
    "icao": "DTMB",
    "lat": "35.758056",
    "lon": "10.754722",
    "timezone": "0",
    "dst": "E",
    "alt": 9
  }
},
{
  "model": "travels.airport",
  "pk": 287,
  "fields": {
    "name": "Carthage",
    "city": "Tunis",
    "country": "Tunisia",
    "iata": "TUN",
    "icao": "DTTA",
    "lat": "36.851033",
    "lon": "10.227217",
    "timezone": "0",
    "dst": "E",
    "alt": 22
  }
},
{
  "model": "travels.airport",
  "pk": 288,
  "fields": {
    "name": "Sidi Ahmed Air Base",
    "city": "Bizerte",
    "country": "Tunisia",
    "iata": "",
    "icao": "DTTB",
    "lat": "37.245447",
    "lon": "9.791453",
    "timezone": "0",
    "dst": "E",
    "alt": 20
  }
},
{
  "model": "travels.airport",
  "pk": 289,
  "fields": {
    "name": "Remada",
    "city": "Remada",
    "country": "Tunisia",
    "iata": "",
    "icao": "DTTD",
    "lat": "32.306156",
    "lon": "10.382108",
    "timezone": "0",
    "dst": "E",
    "alt": 1004
  }
},
{
  "model": "travels.airport",
  "pk": 290,
  "fields": {
    "name": "Gafsa",
    "city": "Gafsa",
    "country": "Tunisia",
    "iata": "GAF",
    "icao": "DTTF",
    "lat": "34.422022",
    "lon": "8.822503",
    "timezone": "0",
    "dst": "E",
    "alt": 1060
  }
},
{
  "model": "travels.airport",
  "pk": 291,
  "fields": {
    "name": "Gabes",
    "city": "Gabes",
    "country": "Tunisia",
    "iata": "GAE",
    "icao": "DTTG",
    "lat": "33.876919",
    "lon": "10.103333",
    "timezone": "0",
    "dst": "E",
    "alt": 26
  }
},
{
  "model": "travels.airport",
  "pk": 292,
  "fields": {
    "name": "Borj El Amri",
    "city": "Bordj El Amri",
    "country": "Tunisia",
    "iata": "",
    "icao": "DTTI",
    "lat": "36.721339",
    "lon": "9.943147",
    "timezone": "0",
    "dst": "E",
    "alt": 108
  }
},
{
  "model": "travels.airport",
  "pk": 293,
  "fields": {
    "name": "Zarzis",
    "city": "Djerba",
    "country": "Tunisia",
    "iata": "DJE",
    "icao": "DTTJ",
    "lat": "33.875031",
    "lon": "10.775461",
    "timezone": "0",
    "dst": "E",
    "alt": 19
  }
},
{
  "model": "travels.airport",
  "pk": 294,
  "fields": {
    "name": "El Borma",
    "city": "El Borma",
    "country": "Tunisia",
    "iata": "EBM",
    "icao": "DTTR",
    "lat": "31.704281",
    "lon": "9.254619",
    "timezone": "0",
    "dst": "E",
    "alt": 827
  }
},
{
  "model": "travels.airport",
  "pk": 295,
  "fields": {
    "name": "Thyna",
    "city": "Sfax",
    "country": "Tunisia",
    "iata": "SFA",
    "icao": "DTTX",
    "lat": "34.717953",
    "lon": "10.690972",
    "timezone": "0",
    "dst": "E",
    "alt": 85
  }
},
{
  "model": "travels.airport",
  "pk": 296,
  "fields": {
    "name": "Nefta",
    "city": "Tozeur",
    "country": "Tunisia",
    "iata": "TOE",
    "icao": "DTTZ",
    "lat": "33.939722",
    "lon": "8.110556",
    "timezone": "0",
    "dst": "E",
    "alt": 287
  }
},
{
  "model": "travels.airport",
  "pk": 297,
  "fields": {
    "name": "Niamtougou International",
    "city": "Niatougou",
    "country": "Togo",
    "iata": "LRL",
    "icao": "DXNG",
    "lat": "9.767333",
    "lon": "1.09125",
    "timezone": "1",
    "dst": "N",
    "alt": 1515
  }
},
{
  "model": "travels.airport",
  "pk": 298,
  "fields": {
    "name": "Gnassingbe Eyadema Intl",
    "city": "Lome",
    "country": "Togo",
    "iata": "LFW",
    "icao": "DXXX",
    "lat": "6.165611",
    "lon": "1.254511",
    "timezone": "1",
    "dst": "N",
    "alt": 72
  }
},
{
  "model": "travels.airport",
  "pk": 299,
  "fields": {
    "name": "Deurne",
    "city": "Antwerp",
    "country": "Belgium",
    "iata": "ANR",
    "icao": "EBAW",
    "lat": "51.189444",
    "lon": "4.460278",
    "timezone": "1",
    "dst": "E",
    "alt": 39
  }
},
{
  "model": "travels.airport",
  "pk": 300,
  "fields": {
    "name": "Beauvechain",
    "city": "Beauvechain",
    "country": "Belgium",
    "iata": "",
    "icao": "EBBE",
    "lat": "50.75861",
    "lon": "4.768333",
    "timezone": "1",
    "dst": "E",
    "alt": 370
  }
},
{
  "model": "travels.airport",
  "pk": 301,
  "fields": {
    "name": "Kleine Brogel",
    "city": "Kleine Brogel",
    "country": "Belgium",
    "iata": "",
    "icao": "EBBL",
    "lat": "51.168333",
    "lon": "5.47",
    "timezone": "1",
    "dst": "E",
    "alt": 200
  }
},
{
  "model": "travels.airport",
  "pk": 302,
  "fields": {
    "name": "Brussels Natl",
    "city": "Brussels",
    "country": "Belgium",
    "iata": "BRU",
    "icao": "EBBR",
    "lat": "50.901389",
    "lon": "4.484444",
    "timezone": "1",
    "dst": "E",
    "alt": 184
  }
},
{
  "model": "travels.airport",
  "pk": 303,
  "fields": {
    "name": "Bertrix",
    "city": "Bertrix",
    "country": "Belgium",
    "iata": "",
    "icao": "EBBX",
    "lat": "49.891667",
    "lon": "5.223889",
    "timezone": "1",
    "dst": "E",
    "alt": 1514
  }
},
{
  "model": "travels.airport",
  "pk": 304,
  "fields": {
    "name": "Brussels South",
    "city": "Charleroi",
    "country": "Belgium",
    "iata": "CRL",
    "icao": "EBCI",
    "lat": "50.459197",
    "lon": "4.453817",
    "timezone": "1",
    "dst": "E",
    "alt": 614
  }
},
{
  "model": "travels.airport",
  "pk": 305,
  "fields": {
    "name": "Chievres Ab",
    "city": "Chievres",
    "country": "Belgium",
    "iata": "",
    "icao": "EBCV",
    "lat": "50.575833",
    "lon": "3.831",
    "timezone": "1",
    "dst": "E",
    "alt": 193
  }
},
{
  "model": "travels.airport",
  "pk": 306,
  "fields": {
    "name": "Koksijde",
    "city": "Koksijde",
    "country": "Belgium",
    "iata": "",
    "icao": "EBFN",
    "lat": "51.090278",
    "lon": "2.652778",
    "timezone": "1",
    "dst": "E",
    "alt": 20
  }
},
{
  "model": "travels.airport",
  "pk": 307,
  "fields": {
    "name": "Florennes",
    "city": "Florennes",
    "country": "Belgium",
    "iata": "",
    "icao": "EBFS",
    "lat": "50.243333",
    "lon": "4.645833",
    "timezone": "1",
    "dst": "E",
    "alt": 935
  }
},
{
  "model": "travels.airport",
  "pk": 308,
  "fields": {
    "name": "Wevelgem",
    "city": "Kortrijk-vevelgem",
    "country": "Belgium",
    "iata": "QKT",
    "icao": "EBKT",
    "lat": "50.817222",
    "lon": "3.204722",
    "timezone": "1",
    "dst": "E",
    "alt": 64
  }
},
{
  "model": "travels.airport",
  "pk": 309,
  "fields": {
    "name": "Liege",
    "city": "Liege",
    "country": "Belgium",
    "iata": "LGG",
    "icao": "EBLG",
    "lat": "50.637417",
    "lon": "5.443222",
    "timezone": "1",
    "dst": "E",
    "alt": 659
  }
},
{
  "model": "travels.airport",
  "pk": 310,
  "fields": {
    "name": "Oostende",
    "city": "Ostend",
    "country": "Belgium",
    "iata": "OST",
    "icao": "EBOS",
    "lat": "51.198889",
    "lon": "2.862222",
    "timezone": "1",
    "dst": "E",
    "alt": 13
  }
},
{
  "model": "travels.airport",
  "pk": 311,
  "fields": {
    "name": "Zutendaal",
    "city": "Zutendaal",
    "country": "Belgium",
    "iata": "",
    "icao": "EBSL",
    "lat": "50.9475",
    "lon": "5.590556",
    "timezone": "1",
    "dst": "E",
    "alt": 312
  }
},
{
  "model": "travels.airport",
  "pk": 312,
  "fields": {
    "name": "Sint Truiden",
    "city": "Sint-truiden",
    "country": "Belgium",
    "iata": "",
    "icao": "EBST",
    "lat": "50.791944",
    "lon": "5.201667",
    "timezone": "1",
    "dst": "E",
    "alt": 246
  }
},
{
  "model": "travels.airport",
  "pk": 313,
  "fields": {
    "name": "Saint Hubert Mil",
    "city": "St.-hubert",
    "country": "Belgium",
    "iata": "",
    "icao": "EBSU",
    "lat": "50.035833",
    "lon": "5.404167",
    "timezone": "1",
    "dst": "E",
    "alt": 1930
  }
},
{
  "model": "travels.airport",
  "pk": 314,
  "fields": {
    "name": "Ursel",
    "city": "Ursel",
    "country": "Belgium",
    "iata": "",
    "icao": "EBUL",
    "lat": "51.144133",
    "lon": "3.474361",
    "timezone": "1",
    "dst": "E",
    "alt": 95
  }
},
{
  "model": "travels.airport",
  "pk": 315,
  "fields": {
    "name": "Weelde",
    "city": "Weelde",
    "country": "Belgium",
    "iata": "",
    "icao": "EBWE",
    "lat": "51.394783",
    "lon": "4.960194",
    "timezone": "1",
    "dst": "E",
    "alt": 105
  }
},
{
  "model": "travels.airport",
  "pk": 316,
  "fields": {
    "name": "Zoersel",
    "city": "Zoersel",
    "country": "Belgium",
    "iata": "",
    "icao": "EBZR",
    "lat": "51.264722",
    "lon": "4.753333",
    "timezone": "1",
    "dst": "E",
    "alt": 53
  }
},
{
  "model": "travels.airport",
  "pk": 317,
  "fields": {
    "name": "Bautzen",
    "city": "Bautzen",
    "country": "Germany",
    "iata": "BBJ",
    "icao": "EDAB",
    "lat": "51.193531",
    "lon": "14.519747",
    "timezone": "1",
    "dst": "E",
    "alt": 568
  }
},
{
  "model": "travels.airport",
  "pk": 318,
  "fields": {
    "name": "Altenburg Nobitz",
    "city": "Altenburg",
    "country": "Germany",
    "iata": "AOC",
    "icao": "EDAC",
    "lat": "50.981817",
    "lon": "12.506361",
    "timezone": "1",
    "dst": "E",
    "alt": 640
  }
},
{
  "model": "travels.airport",
  "pk": 319,
  "fields": {
    "name": "Dessau",
    "city": "Dessau",
    "country": "Germany",
    "iata": "",
    "icao": "EDAD",
    "lat": "51.831828",
    "lon": "12.184033",
    "timezone": "1",
    "dst": "E",
    "alt": 187
  }
},
{
  "model": "travels.airport",
  "pk": 320,
  "fields": {
    "name": "Eisenhuttenstadt",
    "city": "Eisenhuettenstadt",
    "country": "Germany",
    "iata": "",
    "icao": "EDAE",
    "lat": "52.197333",
    "lon": "14.585667",
    "timezone": "1",
    "dst": "E",
    "alt": 149
  }
},
{
  "model": "travels.airport",
  "pk": 322,
  "fields": {
    "name": "Grossenhain",
    "city": "Suhl",
    "country": "Germany",
    "iata": "",
    "icao": "EDAK",
    "lat": "51.308111",
    "lon": "13.554973",
    "timezone": "1",
    "dst": "E",
    "alt": 417
  }
},
{
  "model": "travels.airport",
  "pk": 323,
  "fields": {
    "name": "Merseburg",
    "city": "Muehlhausen",
    "country": "Germany",
    "iata": "",
    "icao": "EDAM",
    "lat": "51.363",
    "lon": "11.940833",
    "timezone": "1",
    "dst": "E",
    "alt": 340
  }
},
{
  "model": "travels.airport",
  "pk": 324,
  "fields": {
    "name": "Halle Oppin",
    "city": "Halle",
    "country": "Germany",
    "iata": "",
    "icao": "EDAQ",
    "lat": "51.552",
    "lon": "12.052667",
    "timezone": "1",
    "dst": "E",
    "alt": 347
  }
},
{
  "model": "travels.airport",
  "pk": 325,
  "fields": {
    "name": "Riesa Gohlis",
    "city": "Riesa",
    "country": "Germany",
    "iata": "",
    "icao": "EDAU",
    "lat": "51.2935",
    "lon": "13.356",
    "timezone": "1",
    "dst": "E",
    "alt": 322
  }
},
{
  "model": "travels.airport",
  "pk": 326,
  "fields": {
    "name": "Rechlin Larz",
    "city": "Rechlin-laerz",
    "country": "Germany",
    "iata": "",
    "icao": "EDAX",
    "lat": "53.306417",
    "lon": "12.753139",
    "timezone": "1",
    "dst": "E",
    "alt": 220
  }
},
{
  "model": "travels.airport",
  "pk": 327,
  "fields": {
    "name": "Strausberg",
    "city": "Strausberg",
    "country": "Germany",
    "iata": "",
    "icao": "EDAY",
    "lat": "52.579978",
    "lon": "13.915683",
    "timezone": "1",
    "dst": "E",
    "alt": 263
  }
},
{
  "model": "travels.airport",
  "pk": 328,
  "fields": {
    "name": "Schonhagen",
    "city": "Schoenhagen",
    "country": "Germany",
    "iata": "",
    "icao": "EDAZ",
    "lat": "52.203258",
    "lon": "13.158408",
    "timezone": "1",
    "dst": "E",
    "alt": 131
  }
},
{
  "model": "travels.airport",
  "pk": 329,
  "fields": {
    "name": "Barth",
    "city": "Barth",
    "country": "Germany",
    "iata": "BBH",
    "icao": "EDBH",
    "lat": "54.33754",
    "lon": "12.699705",
    "timezone": "1",
    "dst": "E",
    "alt": 23
  }
},
{
  "model": "travels.airport",
  "pk": 330,
  "fields": {
    "name": "Jena Schongleina",
    "city": "Jena",
    "country": "Germany",
    "iata": "",
    "icao": "EDBJ",
    "lat": "50.915161",
    "lon": "11.714519",
    "timezone": "1",
    "dst": "E",
    "alt": 1228
  }
},
{
  "model": "travels.airport",
  "pk": 331,
  "fields": {
    "name": "Kyritz",
    "city": "Kyritz",
    "country": "Germany",
    "iata": "",
    "icao": "EDBK",
    "lat": "52.918833",
    "lon": "12.425333",
    "timezone": "1",
    "dst": "E",
    "alt": 130
  }
},
{
  "model": "travels.airport",
  "pk": 332,
  "fields": {
    "name": "Magdeburg",
    "city": "Magdeburg",
    "country": "Germany",
    "iata": "",
    "icao": "EDBM",
    "lat": "52.073658",
    "lon": "11.626467",
    "timezone": "1",
    "dst": "E",
    "alt": 268
  }
},
{
  "model": "travels.airport",
  "pk": 333,
  "fields": {
    "name": "Rothenburg Gorlitz",
    "city": "Rothenburg/ol",
    "country": "Germany",
    "iata": "",
    "icao": "EDBR",
    "lat": "51.363167",
    "lon": "14.95",
    "timezone": "1",
    "dst": "E",
    "alt": 517
  }
},
{
  "model": "travels.airport",
  "pk": 334,
  "fields": {
    "name": "Anklam",
    "city": "Anklam",
    "country": "Germany",
    "iata": "",
    "icao": "EDCA",
    "lat": "53.8327",
    "lon": "13.669131",
    "timezone": "1",
    "dst": "E",
    "alt": 18
  }
},
{
  "model": "travels.airport",
  "pk": 335,
  "fields": {
    "name": "Cottbus Drewitz",
    "city": "Cottbus",
    "country": "Germany",
    "iata": "",
    "icao": "EDCD",
    "lat": "51.889475",
    "lon": "14.531986",
    "timezone": "1",
    "dst": "E",
    "alt": 274
  }
},
{
  "model": "travels.airport",
  "pk": 336,
  "fields": {
    "name": "Kamenz",
    "city": "Kamenz",
    "country": "Germany",
    "iata": "",
    "icao": "EDCM",
    "lat": "51.29625",
    "lon": "14.129",
    "timezone": "1",
    "dst": "E",
    "alt": 495
  }
},
{
  "model": "travels.airport",
  "pk": 337,
  "fields": {
    "name": "Schonefeld",
    "city": "Berlin",
    "country": "Germany",
    "iata": "SXF",
    "icao": "EDDB",
    "lat": "52.380001",
    "lon": "13.5225",
    "timezone": "1",
    "dst": "E",
    "alt": 157
  }
},
{
  "model": "travels.airport",
  "pk": 338,
  "fields": {
    "name": "Dresden",
    "city": "Dresden",
    "country": "Germany",
    "iata": "DRS",
    "icao": "EDDC",
    "lat": "51.132767",
    "lon": "13.767161",
    "timezone": "1",
    "dst": "E",
    "alt": 755
  }
},
{
  "model": "travels.airport",
  "pk": 339,
  "fields": {
    "name": "Erfurt",
    "city": "Erfurt",
    "country": "Germany",
    "iata": "ERF",
    "icao": "EDDE",
    "lat": "50.979811",
    "lon": "10.958106",
    "timezone": "1",
    "dst": "E",
    "alt": 1036
  }
},
{
  "model": "travels.airport",
  "pk": 340,
  "fields": {
    "name": "Frankfurt Main",
    "city": "Frankfurt",
    "country": "Germany",
    "iata": "FRA",
    "icao": "EDDF",
    "lat": "50.026421",
    "lon": "8.543125",
    "timezone": "1",
    "dst": "E",
    "alt": 364
  }
},
{
  "model": "travels.airport",
  "pk": 341,
  "fields": {
    "name": "Munster Osnabruck",
    "city": "Munster",
    "country": "Germany",
    "iata": "FMO",
    "icao": "EDDG",
    "lat": "52.134642",
    "lon": "7.684831",
    "timezone": "1",
    "dst": "E",
    "alt": 160
  }
},
{
  "model": "travels.airport",
  "pk": 342,
  "fields": {
    "name": "Hamburg",
    "city": "Hamburg",
    "country": "Germany",
    "iata": "HAM",
    "icao": "EDDH",
    "lat": "53.630389",
    "lon": "9.988228",
    "timezone": "1",
    "dst": "E",
    "alt": 53
  }
},
{
  "model": "travels.airport",
  "pk": 343,
  "fields": {
    "name": "Tempelhof",
    "city": "Berlin",
    "country": "Germany",
    "iata": "THF",
    "icao": "EDDI",
    "lat": "52.473025",
    "lon": "13.403944",
    "timezone": "1",
    "dst": "E",
    "alt": 167
  }
},
{
  "model": "travels.airport",
  "pk": 344,
  "fields": {
    "name": "Koln Bonn",
    "city": "Cologne",
    "country": "Germany",
    "iata": "CGN",
    "icao": "EDDK",
    "lat": "50.865917",
    "lon": "7.142744",
    "timezone": "1",
    "dst": "E",
    "alt": 302
  }
},
{
  "model": "travels.airport",
  "pk": 345,
  "fields": {
    "name": "Dusseldorf",
    "city": "Duesseldorf",
    "country": "Germany",
    "iata": "DUS",
    "icao": "EDDL",
    "lat": "51.289453",
    "lon": "6.766775",
    "timezone": "1",
    "dst": "E",
    "alt": 147
  }
},
{
  "model": "travels.airport",
  "pk": 346,
  "fields": {
    "name": "Franz Josef Strauss",
    "city": "Munich",
    "country": "Germany",
    "iata": "MUC",
    "icao": "EDDM",
    "lat": "48.353783",
    "lon": "11.786086",
    "timezone": "1",
    "dst": "E",
    "alt": 1487
  }
},
{
  "model": "travels.airport",
  "pk": 347,
  "fields": {
    "name": "Nurnberg",
    "city": "Nuernberg",
    "country": "Germany",
    "iata": "NUE",
    "icao": "EDDN",
    "lat": "49.4987",
    "lon": "11.066897",
    "timezone": "1",
    "dst": "E",
    "alt": 1046
  }
},
{
  "model": "travels.airport",
  "pk": 348,
  "fields": {
    "name": "Leipzig Halle",
    "city": "Leipzig",
    "country": "Germany",
    "iata": "LEJ",
    "icao": "EDDP",
    "lat": "51.432447",
    "lon": "12.241633",
    "timezone": "1",
    "dst": "E",
    "alt": 465
  }
},
{
  "model": "travels.airport",
  "pk": 349,
  "fields": {
    "name": "Saarbrucken",
    "city": "Saarbruecken",
    "country": "Germany",
    "iata": "SCN",
    "icao": "EDDR",
    "lat": "49.214553",
    "lon": "7.109508",
    "timezone": "1",
    "dst": "E",
    "alt": 1058
  }
},
{
  "model": "travels.airport",
  "pk": 350,
  "fields": {
    "name": "Stuttgart",
    "city": "Stuttgart",
    "country": "Germany",
    "iata": "STR",
    "icao": "EDDS",
    "lat": "48.689878",
    "lon": "9.221964",
    "timezone": "1",
    "dst": "E",
    "alt": 1276
  }
},
{
  "model": "travels.airport",
  "pk": 351,
  "fields": {
    "name": "Tegel",
    "city": "Berlin",
    "country": "Germany",
    "iata": "TXL",
    "icao": "EDDT",
    "lat": "52.559686",
    "lon": "13.287711",
    "timezone": "1",
    "dst": "E",
    "alt": 122
  }
},
{
  "model": "travels.airport",
  "pk": 352,
  "fields": {
    "name": "Hannover",
    "city": "Hannover",
    "country": "Germany",
    "iata": "HAJ",
    "icao": "EDDV",
    "lat": "52.461056",
    "lon": "9.685078",
    "timezone": "1",
    "dst": "E",
    "alt": 183
  }
},
{
  "model": "travels.airport",
  "pk": 353,
  "fields": {
    "name": "Neuenland",
    "city": "Bremen",
    "country": "Germany",
    "iata": "BRE",
    "icao": "EDDW",
    "lat": "53.0475",
    "lon": "8.786667",
    "timezone": "1",
    "dst": "E",
    "alt": 14
  }
},
{
  "model": "travels.airport",
  "pk": 354,
  "fields": {
    "name": "Egelsbach",
    "city": "Egelsbach",
    "country": "Germany",
    "iata": "",
    "icao": "EDFE",
    "lat": "49.960833",
    "lon": "8.6415",
    "timezone": "1",
    "dst": "E",
    "alt": 385
  }
},
{
  "model": "travels.airport",
  "pk": 355,
  "fields": {
    "name": "Frankfurt Hahn",
    "city": "Hahn",
    "country": "Germany",
    "iata": "HHN",
    "icao": "EDFH",
    "lat": "49.948672",
    "lon": "7.263892",
    "timezone": "1",
    "dst": "E",
    "alt": 1649
  }
},
{
  "model": "travels.airport",
  "pk": 356,
  "fields": {
    "name": "Mannheim City",
    "city": "Mannheim",
    "country": "Germany",
    "iata": "MHG",
    "icao": "EDFM",
    "lat": "49.472706",
    "lon": "8.514264",
    "timezone": "1",
    "dst": "E",
    "alt": 309
  }
},
{
  "model": "travels.airport",
  "pk": 357,
  "fields": {
    "name": "Allendorf Eder",
    "city": "Allendorf",
    "country": "Germany",
    "iata": "",
    "icao": "EDFQ",
    "lat": "51.034878",
    "lon": "8.680839",
    "timezone": "1",
    "dst": "E",
    "alt": 1164
  }
},